header: 
  seq: 2325
  stamp: 
    secs: 0
    nsecs: 100000001
  frame_id: odom
child_frame_id: base_link
pose: 
  pose: 
    position: 
      x: -0.0862612857806
      y: -0.838589296189
      z: 0.0
    orientation: 
      x: 0.0
      y: 0.0
      z: -0.00448797443893
      w: 0.999989928992
  covariance: [0.0, 0.0, 0.0, 0.0, 0.0, 0.0, 0.0, 0.0, 0.0, 0.0, 0.0, 0.0, 0.0, 0.0, 0.0, 0.0, 0.0, 0.0, 0.0, 0.0, 0.0, 0.0, 0.0, 0.0, 0.0, 0.0, 0.0, 0.0, 0.0, 0.0, 0.0, 0.0, 0.0, 0.0, 0.0, 0.0]
twist: 
  twist: 
    linear: 
      x: 0.188615624694
      y: -0.00132066955547
      z: 0.0
    angular: 
      x: 0.0
      y: 0.0
      z: 0.00228687368912
  covariance: [0.0, 0.0, 0.0, 0.0, 0.0, 0.0, 0.0, 0.0, 0.0, 0.0, 0.0, 0.0, 0.0, 0.0, 0.0, 0.0, 0.0, 0.0, 0.0, 0.0, 0.0, 0.0, 0.0, 0.0, 0.0, 0.0, 0.0, 0.0, 0.0, 0.0, 0.0, 0.0, 0.0, 0.0, 0.0, 0.0]
---
header: 
  seq: 2326
  stamp: 
    secs: 0
    nsecs: 150000006
  frame_id: odom
child_frame_id: base_link
pose: 
  pose: 
    position: 
      x: -0.0861766903074
      y: -0.829164897895
      z: 0.0
    orientation: 
      x: 0.0
      y: 0.0
      z: -0.00448797443893
      w: 0.999989928992
  covariance: [0.0, 0.0, 0.0, 0.0, 0.0, 0.0, 0.0, 0.0, 0.0, 0.0, 0.0, 0.0, 0.0, 0.0, 0.0, 0.0, 0.0, 0.0, 0.0, 0.0, 0.0, 0.0, 0.0, 0.0, 0.0, 0.0, 0.0, 0.0, 0.0, 0.0, 0.0, 0.0, 0.0, 0.0, 0.0, 0.0]
twist: 
  twist: 
    linear: 
      x: 0.0
      y: 0.188495540366
      z: 0.0
    angular: 
      x: 0.0
      y: 0.0
      z: 0.0
  covariance: [0.0, 0.0, 0.0, 0.0, 0.0, 0.0, 0.0, 0.0, 0.0, 0.0, 0.0, 0.0, 0.0, 0.0, 0.0, 0.0, 0.0, 0.0, 0.0, 0.0, 0.0, 0.0, 0.0, 0.0, 0.0, 0.0, 0.0, 0.0, 0.0, 0.0, 0.0, 0.0, 0.0, 0.0, 0.0, 0.0]
---
header: 
  seq: 2327
  stamp: 
    secs: 0
    nsecs: 200000003
  frame_id: odom
child_frame_id: base_link
pose: 
  pose: 
    position: 
      x: -0.0860892749851
      y: -0.81942635299
      z: 0.0
    orientation: 
      x: 0.0
      y: 0.0
      z: -0.00448797443893
      w: 0.999989928992
  covariance: [0.0, 0.0, 0.0, 0.0, 0.0, 0.0, 0.0, 0.0, 0.0, 0.0, 0.0, 0.0, 0.0, 0.0, 0.0, 0.0, 0.0, 0.0, 0.0, 0.0, 0.0, 0.0, 0.0, 0.0, 0.0, 0.0, 0.0, 0.0, 0.0, 0.0, 0.0, 0.0, 0.0, 0.0, 0.0, 0.0]
twist: 
  twist: 
    linear: 
      x: 0.0
      y: 0.194778756209
      z: 0.0
    angular: 
      x: 0.0
      y: 0.0
      z: -1.58603289232e-17
  covariance: [0.0, 0.0, 0.0, 0.0, 0.0, 0.0, 0.0, 0.0, 0.0, 0.0, 0.0, 0.0, 0.0, 0.0, 0.0, 0.0, 0.0, 0.0, 0.0, 0.0, 0.0, 0.0, 0.0, 0.0, 0.0, 0.0, 0.0, 0.0, 0.0, 0.0, 0.0, 0.0, 0.0, 0.0, 0.0, 0.0]
---
header: 
  seq: 2328
  stamp: 
    secs: 0
    nsecs: 250000000
  frame_id: odom
child_frame_id: base_link
pose: 
  pose: 
    position: 
      x: -0.0861530812606
      y: -0.809529295223
      z: 0.0
    orientation: 
      x: 0.0
      y: 0.0
      z: -0.00471237153937
      w: 0.999988896716
  covariance: [0.0, 0.0, 0.0, 0.0, 0.0, 0.0, 0.0, 0.0, 0.0, 0.0, 0.0, 0.0, 0.0, 0.0, 0.0, 0.0, 0.0, 0.0, 0.0, 0.0, 0.0, 0.0, 0.0, 0.0, 0.0, 0.0, 0.0, 0.0, 0.0, 0.0, 0.0, 0.0, 0.0, 0.0, 0.0, 0.0]
twist: 
  twist: 
    linear: 
      x: -0.00314159284209
      y: 0.197920349051
      z: 0.0
    angular: 
      x: 0.0
      y: 0.0
      z: -0.00897597954882
  covariance: [0.0, 0.0, 0.0, 0.0, 0.0, 0.0, 0.0, 0.0, 0.0, 0.0, 0.0, 0.0, 0.0, 0.0, 0.0, 0.0, 0.0, 0.0, 0.0, 0.0, 0.0, 0.0, 0.0, 0.0, 0.0, 0.0, 0.0, 0.0, 0.0, 0.0, 0.0, 0.0, 0.0, 0.0, 0.0, 0.0]
---
header: 
  seq: 2329
  stamp: 
    secs: 0
    nsecs: 300000012
  frame_id: odom
child_frame_id: base_link
pose: 
  pose: 
    position: 
      x: -0.086064256136
      y: -0.800104935844
      z: 0.0
    orientation: 
      x: 0.0
      y: 0.0
      z: -0.00471237153937
      w: 0.999988896716
  covariance: [0.0, 0.0, 0.0, 0.0, 0.0, 0.0, 0.0, 0.0, 0.0, 0.0, 0.0, 0.0, 0.0, 0.0, 0.0, 0.0, 0.0, 0.0, 0.0, 0.0, 0.0, 0.0, 0.0, 0.0, 0.0, 0.0, 0.0, 0.0, 0.0, 0.0, 0.0, 0.0, 0.0, 0.0, 0.0, 0.0]
twist: 
  twist: 
    linear: 
      x: 0.0
      y: 0.188495513976
      z: 0.0
    angular: 
      x: 0.0
      y: 0.0
      z: 0.0
  covariance: [0.0, 0.0, 0.0, 0.0, 0.0, 0.0, 0.0, 0.0, 0.0, 0.0, 0.0, 0.0, 0.0, 0.0, 0.0, 0.0, 0.0, 0.0, 0.0, 0.0, 0.0, 0.0, 0.0, 0.0, 0.0, 0.0, 0.0, 0.0, 0.0, 0.0, 0.0, 0.0, 0.0, 0.0, 0.0, 0.0]
---
header: 
  seq: 2330
  stamp: 
    secs: 0
    nsecs: 349999994
  frame_id: odom
child_frame_id: base_link
pose: 
  pose: 
    position: 
      x: -0.0858183575842
      y: -0.790210727559
      z: 0.0
    orientation: 
      x: 0.0
      y: 0.0
      z: -0.00448797443893
      w: 0.999989928992
  covariance: [0.0, 0.0, 0.0, 0.0, 0.0, 0.0, 0.0, 0.0, 0.0, 0.0, 0.0, 0.0, 0.0, 0.0, 0.0, 0.0, 0.0, 0.0, 0.0, 0.0, 0.0, 0.0, 0.0, 0.0, 0.0, 0.0, 0.0, 0.0, 0.0, 0.0, 0.0, 0.0, 0.0, 0.0, 0.0, 0.0]
twist: 
  twist: 
    linear: 
      x: 0.00314159378456
      y: 0.197920408428
      z: 0.0
    angular: 
      x: 0.0
      y: 0.0
      z: 0.00897598224161
  covariance: [0.0, 0.0, 0.0, 0.0, 0.0, 0.0, 0.0, 0.0, 0.0, 0.0, 0.0, 0.0, 0.0, 0.0, 0.0, 0.0, 0.0, 0.0, 0.0, 0.0, 0.0, 0.0, 0.0, 0.0, 0.0, 0.0, 0.0, 0.0, 0.0, 0.0, 0.0, 0.0, 0.0, 0.0, 0.0, 0.0]
---
header: 
  seq: 2331
  stamp: 
    secs: 0
    nsecs: 400000006
  frame_id: odom
child_frame_id: base_link
pose: 
  pose: 
    position: 
      x: -0.0858821638597
      y: -0.780313669792
      z: 0.0
    orientation: 
      x: 0.0
      y: 0.0
      z: -0.00471237153937
      w: 0.999988896716
  covariance: [0.0, 0.0, 0.0, 0.0, 0.0, 0.0, 0.0, 0.0, 0.0, 0.0, 0.0, 0.0, 0.0, 0.0, 0.0, 0.0, 0.0, 0.0, 0.0, 0.0, 0.0, 0.0, 0.0, 0.0, 0.0, 0.0, 0.0, 0.0, 0.0, 0.0, 0.0, 0.0, 0.0, 0.0, 0.0, 0.0]
twist: 
  twist: 
    linear: 
      x: -0.00314159189961
      y: 0.197920289675
      z: 0.0
    angular: 
      x: 0.0
      y: 0.0
      z: -0.00897597685602
  covariance: [0.0, 0.0, 0.0, 0.0, 0.0, 0.0, 0.0, 0.0, 0.0, 0.0, 0.0, 0.0, 0.0, 0.0, 0.0, 0.0, 0.0, 0.0, 0.0, 0.0, 0.0, 0.0, 0.0, 0.0, 0.0, 0.0, 0.0, 0.0, 0.0, 0.0, 0.0, 0.0, 0.0, 0.0, 0.0, 0.0]
---
header: 
  seq: 2332
  stamp: 
    secs: 0
    nsecs: 449999988
  frame_id: odom
child_frame_id: base_link
pose: 
  pose: 
    position: 
      x: -0.0857903778977
      y: -0.770575165101
      z: 0.0
    orientation: 
      x: 0.0
      y: 0.0
      z: -0.00471237153937
      w: 0.999988896716
  covariance: [0.0, 0.0, 0.0, 0.0, 0.0, 0.0, 0.0, 0.0, 0.0, 0.0, 0.0, 0.0, 0.0, 0.0, 0.0, 0.0, 0.0, 0.0, 0.0, 0.0, 0.0, 0.0, 0.0, 0.0, 0.0, 0.0, 0.0, 0.0, 0.0, 0.0, 0.0, 0.0, 0.0, 0.0, 0.0, 0.0]
twist: 
  twist: 
    linear: 
      x: 0.0
      y: 0.194778814643
      z: 0.0
    angular: 
      x: 0.0
      y: 0.0
      z: 0.0
  covariance: [0.0, 0.0, 0.0, 0.0, 0.0, 0.0, 0.0, 0.0, 0.0, 0.0, 0.0, 0.0, 0.0, 0.0, 0.0, 0.0, 0.0, 0.0, 0.0, 0.0, 0.0, 0.0, 0.0, 0.0, 0.0, 0.0, 0.0, 0.0, 0.0, 0.0, 0.0, 0.0, 0.0, 0.0, 0.0, 0.0]
---
header: 
  seq: 2333
  stamp: 
    secs: 0
    nsecs: 500000000
  frame_id: odom
child_frame_id: base_link
pose: 
  pose: 
    position: 
      x: -0.085852844203
      y: -0.760992223647
      z: 0.0
    orientation: 
      x: 0.0
      y: 0.0
      z: -0.00493676840253
      w: 0.999987814085
  covariance: [0.0, 0.0, 0.0, 0.0, 0.0, 0.0, 0.0, 0.0, 0.0, 0.0, 0.0, 0.0, 0.0, 0.0, 0.0, 0.0, 0.0, 0.0, 0.0, 0.0, 0.0, 0.0, 0.0, 0.0, 0.0, 0.0, 0.0, 0.0, 0.0, 0.0, 0.0, 0.0, 0.0, 0.0, 0.0, 0.0]
twist: 
  twist: 
    linear: 
      x: -0.00314159189961
      y: 0.191637105876
      z: 0.0
    angular: 
      x: 0.0
      y: 0.0
      z: -0.00897597685602
  covariance: [0.0, 0.0, 0.0, 0.0, 0.0, 0.0, 0.0, 0.0, 0.0, 0.0, 0.0, 0.0, 0.0, 0.0, 0.0, 0.0, 0.0, 0.0, 0.0, 0.0, 0.0, 0.0, 0.0, 0.0, 0.0, 0.0, 0.0, 0.0, 0.0, 0.0, 0.0, 0.0, 0.0, 0.0, 0.0, 0.0]
---
header: 
  seq: 2334
  stamp: 
    secs: 0
    nsecs: 550000012
  frame_id: odom
child_frame_id: base_link
pose: 
  pose: 
    position: 
      x: -0.0856025051659
      y: -0.751098126717
      z: 0.0
    orientation: 
      x: 0.0
      y: 0.0
      z: -0.00471237153937
      w: 0.999988896716
  covariance: [0.0, 0.0, 0.0, 0.0, 0.0, 0.0, 0.0, 0.0, 0.0, 0.0, 0.0, 0.0, 0.0, 0.0, 0.0, 0.0, 0.0, 0.0, 0.0, 0.0, 0.0, 0.0, 0.0, 0.0, 0.0, 0.0, 0.0, 0.0, 0.0, 0.0, 0.0, 0.0, 0.0, 0.0, 0.0, 0.0]
twist: 
  twist: 
    linear: 
      x: 0.00314159189961
      y: 0.197920289675
      z: 0.0
    angular: 
      x: 0.0
      y: 0.0
      z: 0.00897597685602
  covariance: [0.0, 0.0, 0.0, 0.0, 0.0, 0.0, 0.0, 0.0, 0.0, 0.0, 0.0, 0.0, 0.0, 0.0, 0.0, 0.0, 0.0, 0.0, 0.0, 0.0, 0.0, 0.0, 0.0, 0.0, 0.0, 0.0, 0.0, 0.0, 0.0, 0.0, 0.0, 0.0, 0.0, 0.0, 0.0, 0.0]
---
header: 
  seq: 2335
  stamp: 
    secs: 0
    nsecs: 600000024
  frame_id: odom
child_frame_id: base_link
pose: 
  pose: 
    position: 
      x: -0.0855107192038
      y: -0.741359622025
      z: 0.0
    orientation: 
      x: 0.0
      y: 0.0
      z: -0.00471237153937
      w: 0.999988896716
  covariance: [0.0, 0.0, 0.0, 0.0, 0.0, 0.0, 0.0, 0.0, 0.0, 0.0, 0.0, 0.0, 0.0, 0.0, 0.0, 0.0, 0.0, 0.0, 0.0, 0.0, 0.0, 0.0, 0.0, 0.0, 0.0, 0.0, 0.0, 0.0, 0.0, 0.0, 0.0, 0.0, 0.0, 0.0, 0.0, 0.0]
twist: 
  twist: 
    linear: 
      x: 0.0
      y: 0.194778697776
      z: 0.0
    angular: 
      x: 0.0
      y: 0.0
      z: 1.58603289232e-17
  covariance: [0.0, 0.0, 0.0, 0.0, 0.0, 0.0, 0.0, 0.0, 0.0, 0.0, 0.0, 0.0, 0.0, 0.0, 0.0, 0.0, 0.0, 0.0, 0.0, 0.0, 0.0, 0.0, 0.0, 0.0, 0.0, 0.0, 0.0, 0.0, 0.0, 0.0, 0.0, 0.0, 0.0, 0.0, 0.0, 0.0]
---
header: 
  seq: 2336
  stamp: 
    secs: 0
    nsecs: 649999976
  frame_id: odom
child_frame_id: base_link
pose: 
  pose: 
    position: 
      x: -0.0855700836839
      y: -0.731462536619
      z: 0.0
    orientation: 
      x: 0.0
      y: 0.0
      z: -0.00493676840253
      w: 0.999987814085
  covariance: [0.0, 0.0, 0.0, 0.0, 0.0, 0.0, 0.0, 0.0, 0.0, 0.0, 0.0, 0.0, 0.0, 0.0, 0.0, 0.0, 0.0, 0.0, 0.0, 0.0, 0.0, 0.0, 0.0, 0.0, 0.0, 0.0, 0.0, 0.0, 0.0, 0.0, 0.0, 0.0, 0.0, 0.0, 0.0, 0.0]
twist: 
  twist: 
    linear: 
      x: -0.00314159566952
      y: 0.19792052718
      z: 0.0
    angular: 
      x: 0.0
      y: 0.0
      z: -0.0089759876272
  covariance: [0.0, 0.0, 0.0, 0.0, 0.0, 0.0, 0.0, 0.0, 0.0, 0.0, 0.0, 0.0, 0.0, 0.0, 0.0, 0.0, 0.0, 0.0, 0.0, 0.0, 0.0, 0.0, 0.0, 0.0, 0.0, 0.0, 0.0, 0.0, 0.0, 0.0, 0.0, 0.0, 0.0, 0.0, 0.0, 0.0]
---
header: 
  seq: 2337
  stamp: 
    secs: 0
    nsecs: 699999988
  frame_id: odom
child_frame_id: base_link
pose: 
  pose: 
    position: 
      x: -0.0854770289258
      y: -0.722038218054
      z: 0.0
    orientation: 
      x: 0.0
      y: 0.0
      z: -0.00493676840253
      w: 0.999987814085
  covariance: [0.0, 0.0, 0.0, 0.0, 0.0, 0.0, 0.0, 0.0, 0.0, 0.0, 0.0, 0.0, 0.0, 0.0, 0.0, 0.0, 0.0, 0.0, 0.0, 0.0, 0.0, 0.0, 0.0, 0.0, 0.0, 0.0, 0.0, 0.0, 0.0, 0.0, 0.0, 0.0, 0.0, 0.0, 0.0, 0.0]
twist: 
  twist: 
    linear: 
      x: 0.0
      y: 0.188495513976
      z: 0.0
    angular: 
      x: 0.0
      y: 0.0
      z: 0.0
  covariance: [0.0, 0.0, 0.0, 0.0, 0.0, 0.0, 0.0, 0.0, 0.0, 0.0, 0.0, 0.0, 0.0, 0.0, 0.0, 0.0, 0.0, 0.0, 0.0, 0.0, 0.0, 0.0, 0.0, 0.0, 0.0, 0.0, 0.0, 0.0, 0.0, 0.0, 0.0, 0.0, 0.0, 0.0, 0.0, 0.0]
---
header: 
  seq: 2338
  stamp: 
    secs: 0
    nsecs: 750000000
  frame_id: odom
child_frame_id: base_link
pose: 
  pose: 
    position: 
      x: -0.0855319515985
      y: -0.712141107002
      z: 0.0
    orientation: 
      x: 0.0
      y: 0.0
      z: -0.00516116501709
      w: 0.999986681099
  covariance: [0.0, 0.0, 0.0, 0.0, 0.0, 0.0, 0.0, 0.0, 0.0, 0.0, 0.0, 0.0, 0.0, 0.0, 0.0, 0.0, 0.0, 0.0, 0.0, 0.0, 0.0, 0.0, 0.0, 0.0, 0.0, 0.0, 0.0, 0.0, 0.0, 0.0, 0.0, 0.0, 0.0, 0.0, 0.0, 0.0]
twist: 
  twist: 
    linear: 
      x: -0.00314159189961
      y: 0.197920289675
      z: 0.0
    angular: 
      x: 0.0
      y: 0.0
      z: -0.00897597685602
  covariance: [0.0, 0.0, 0.0, 0.0, 0.0, 0.0, 0.0, 0.0, 0.0, 0.0, 0.0, 0.0, 0.0, 0.0, 0.0, 0.0, 0.0, 0.0, 0.0, 0.0, 0.0, 0.0, 0.0, 0.0, 0.0, 0.0, 0.0, 0.0, 0.0, 0.0, 0.0, 0.0, 0.0, 0.0, 0.0, 0.0]
---
header: 
  seq: 2339
  stamp: 
    secs: 0
    nsecs: 800000012
  frame_id: odom
child_frame_id: base_link
pose: 
  pose: 
    position: 
      x: -0.0852771721264
      y: -0.702247123421
      z: 0.0
    orientation: 
      x: 0.0
      y: 0.0
      z: -0.00493676840253
      w: 0.999987814085
  covariance: [0.0, 0.0, 0.0, 0.0, 0.0, 0.0, 0.0, 0.0, 0.0, 0.0, 0.0, 0.0, 0.0, 0.0, 0.0, 0.0, 0.0, 0.0, 0.0, 0.0, 0.0, 0.0, 0.0, 0.0, 0.0, 0.0, 0.0, 0.0, 0.0, 0.0, 0.0, 0.0, 0.0, 0.0, 0.0, 0.0]
twist: 
  twist: 
    linear: 
      x: 0.00314159189961
      y: 0.197920289675
      z: 0.0
    angular: 
      x: 0.0
      y: 0.0
      z: 0.00897597685602
  covariance: [0.0, 0.0, 0.0, 0.0, 0.0, 0.0, 0.0, 0.0, 0.0, 0.0, 0.0, 0.0, 0.0, 0.0, 0.0, 0.0, 0.0, 0.0, 0.0, 0.0, 0.0, 0.0, 0.0, 0.0, 0.0, 0.0, 0.0, 0.0, 0.0, 0.0, 0.0, 0.0, 0.0, 0.0, 0.0, 0.0]
---
header: 
  seq: 2340
  stamp: 
    secs: 0
    nsecs: 850000024
  frame_id: odom
child_frame_id: base_link
pose: 
  pose: 
    position: 
      x: -0.0853439392394
      y: -0.692664210966
      z: 0.0
    orientation: 
      x: 0.0
      y: 0.0
      z: -0.00471237153937
      w: 0.999988896716
  covariance: [0.0, 0.0, 0.0, 0.0, 0.0, 0.0, 0.0, 0.0, 0.0, 0.0, 0.0, 0.0, 0.0, 0.0, 0.0, 0.0, 0.0, 0.0, 0.0, 0.0, 0.0, 0.0, 0.0, 0.0, 0.0, 0.0, 0.0, 0.0, 0.0, 0.0, 0.0, 0.0, 0.0, 0.0, 0.0, 0.0]
twist: 
  twist: 
    linear: 
      x: -0.00314159189961
      y: 0.191637105876
      z: 0.0
    angular: 
      x: 0.0
      y: 0.0
      z: 0.00897597685602
  covariance: [0.0, 0.0, 0.0, 0.0, 0.0, 0.0, 0.0, 0.0, 0.0, 0.0, 0.0, 0.0, 0.0, 0.0, 0.0, 0.0, 0.0, 0.0, 0.0, 0.0, 0.0, 0.0, 0.0, 0.0, 0.0, 0.0, 0.0, 0.0, 0.0, 0.0, 0.0, 0.0, 0.0, 0.0, 0.0, 0.0]
---
header: 
  seq: 2341
  stamp: 
    secs: 0
    nsecs: 899999976
  frame_id: odom
child_frame_id: base_link
pose: 
  pose: 
    position: 
      x: -0.0852434120541
      y: -0.682925792585
      z: 0.0
    orientation: 
      x: 0.0
      y: 0.0
      z: -0.00516116501709
      w: 0.999986681099
  covariance: [0.0, 0.0, 0.0, 0.0, 0.0, 0.0, 0.0, 0.0, 0.0, 0.0, 0.0, 0.0, 0.0, 0.0, 0.0, 0.0, 0.0, 0.0, 0.0, 0.0, 0.0, 0.0, 0.0, 0.0, 0.0, 0.0, 0.0, 0.0, 0.0, 0.0, 0.0, 0.0, 0.0, 0.0, 0.0, 0.0]
twist: 
  twist: 
    linear: 
      x: 0.0
      y: 0.19477893151
      z: 0.0
    angular: 
      x: 0.0
      y: 0.0
      z: -0.0179519752544
  covariance: [0.0, 0.0, 0.0, 0.0, 0.0, 0.0, 0.0, 0.0, 0.0, 0.0, 0.0, 0.0, 0.0, 0.0, 0.0, 0.0, 0.0, 0.0, 0.0, 0.0, 0.0, 0.0, 0.0, 0.0, 0.0, 0.0, 0.0, 0.0, 0.0, 0.0, 0.0, 0.0, 0.0, 0.0, 0.0, 0.0]
---
header: 
  seq: 2342
  stamp: 
    secs: 0
    nsecs: 949999988
  frame_id: odom
child_frame_id: base_link
pose: 
  pose: 
    position: 
      x: -0.0851428848688
      y: -0.673187374203
      z: 0.0
    orientation: 
      x: 0.0
      y: 0.0
      z: -0.00516116501709
      w: 0.999986681099
  covariance: [0.0, 0.0, 0.0, 0.0, 0.0, 0.0, 0.0, 0.0, 0.0, 0.0, 0.0, 0.0, 0.0, 0.0, 0.0, 0.0, 0.0, 0.0, 0.0, 0.0, 0.0, 0.0, 0.0, 0.0, 0.0, 0.0, 0.0, 0.0, 0.0, 0.0, 0.0, 0.0, 0.0, 0.0, 0.0, 0.0]
twist: 
  twist: 
    linear: 
      x: 0.0
      y: 0.194778697776
      z: 0.0
    angular: 
      x: 0.0
      y: 0.0
      z: 1.58603289232e-17
  covariance: [0.0, 0.0, 0.0, 0.0, 0.0, 0.0, 0.0, 0.0, 0.0, 0.0, 0.0, 0.0, 0.0, 0.0, 0.0, 0.0, 0.0, 0.0, 0.0, 0.0, 0.0, 0.0, 0.0, 0.0, 0.0, 0.0, 0.0, 0.0, 0.0, 0.0, 0.0, 0.0, 0.0, 0.0, 0.0, 0.0]
---
header: 
  seq: 2343
  stamp: 
    secs: 1
    nsecs:         0
  frame_id: odom
child_frame_id: base_link
pose: 
  pose: 
    position: 
      x: -0.0850423576835
      y: -0.663448955821
      z: 0.0
    orientation: 
      x: 0.0
      y: 0.0
      z: -0.00516116501709
      w: 0.999986681099
  covariance: [0.0, 0.0, 0.0, 0.0, 0.0, 0.0, 0.0, 0.0, 0.0, 0.0, 0.0, 0.0, 0.0, 0.0, 0.0, 0.0, 0.0, 0.0, 0.0, 0.0, 0.0, 0.0, 0.0, 0.0, 0.0, 0.0, 0.0, 0.0, 0.0, 0.0, 0.0, 0.0, 0.0, 0.0, 0.0, 0.0]
twist: 
  twist: 
    linear: 
      x: 0.0
      y: 0.194778697776
      z: 0.0
    angular: 
      x: 0.0
      y: 0.0
      z: 1.58603289232e-17
  covariance: [0.0, 0.0, 0.0, 0.0, 0.0, 0.0, 0.0, 0.0, 0.0, 0.0, 0.0, 0.0, 0.0, 0.0, 0.0, 0.0, 0.0, 0.0, 0.0, 0.0, 0.0, 0.0, 0.0, 0.0, 0.0, 0.0, 0.0, 0.0, 0.0, 0.0, 0.0, 0.0, 0.0, 0.0, 0.0, 0.0]
---
header: 
  seq: 2344
  stamp: 
    secs: 1
    nsecs:  49999952
  frame_id: odom
child_frame_id: base_link
pose: 
  pose: 
    position: 
      x: -0.085027553496
      y: -0.661878229258
      z: 0.0
    orientation: 
      x: 0.0
      y: 0.0
      z: -0.00471237153937
      w: 0.999988896716
  covariance: [0.0, 0.0, 0.0, 0.0, 0.0, 0.0, 0.0, 0.0, 0.0, 0.0, 0.0, 0.0, 0.0, 0.0, 0.0, 0.0, 0.0, 0.0, 0.0, 0.0, 0.0, 0.0, 0.0, 0.0, 0.0, 0.0, 0.0, 0.0, 0.0, 0.0, 0.0, 0.0, 0.0, 0.0, 0.0, 0.0]
twist: 
  twist: 
    linear: 
      x: 0.0
      y: 0.0314159566952
      z: 0.0
    angular: 
      x: 0.0
      y: 0.0
      z: 0.0179519752544
  covariance: [0.0, 0.0, 0.0, 0.0, 0.0, 0.0, 0.0, 0.0, 0.0, 0.0, 0.0, 0.0, 0.0, 0.0, 0.0, 0.0, 0.0, 0.0, 0.0, 0.0, 0.0, 0.0, 0.0, 0.0, 0.0, 0.0, 0.0, 0.0, 0.0, 0.0, 0.0, 0.0, 0.0, 0.0, 0.0, 0.0]
---
header: 
  seq: 2345
  stamp: 
    secs: 1
    nsecs: 100000024
  frame_id: odom
child_frame_id: base_link
pose: 
  pose: 
    position: 
      x: -0.0848044988961
      y: -0.655754170849
      z: 0.0
    orientation: 
      x: 0.0
      y: 0.0
      z: -0.00538556137177
      w: 0.999985497759
  covariance: [0.0, 0.0, 0.0, 0.0, 0.0, 0.0, 0.0, 0.0, 0.0, 0.0, 0.0, 0.0, 0.0, 0.0, 0.0, 0.0, 0.0, 0.0, 0.0, 0.0, 0.0, 0.0, 0.0, 0.0, 0.0, 0.0, 0.0, 0.0, 0.0, 0.0, 0.0, 0.0, 0.0, 0.0, 0.0, 0.0]
twist: 
  twist: 
    linear: 
      x: 0.0031415881297
      y: 0.122521937058
      z: 0.0
    angular: 
      x: 0.0
      y: 0.0
      z: -0.0269278982546
  covariance: [0.0, 0.0, 0.0, 0.0, 0.0, 0.0, 0.0, 0.0, 0.0, 0.0, 0.0, 0.0, 0.0, 0.0, 0.0, 0.0, 0.0, 0.0, 0.0, 0.0, 0.0, 0.0, 0.0, 0.0, 0.0, 0.0, 0.0, 0.0, 0.0, 0.0, 0.0, 0.0, 0.0, 0.0, 0.0, 0.0]
---
header: 
  seq: 2346
  stamp: 
    secs: 1
    nsecs: 149999976
  frame_id: odom
child_frame_id: base_link
pose: 
  pose: 
    position: 
      x: -0.0846996011291
      y: -0.646015798565
      z: 0.0
    orientation: 
      x: 0.0
      y: 0.0
      z: -0.00538556137177
      w: 0.999985497759
  covariance: [0.0, 0.0, 0.0, 0.0, 0.0, 0.0, 0.0, 0.0, 0.0, 0.0, 0.0, 0.0, 0.0, 0.0, 0.0, 0.0, 0.0, 0.0, 0.0, 0.0, 0.0, 0.0, 0.0, 0.0, 0.0, 0.0, 0.0, 0.0, 0.0, 0.0, 0.0, 0.0, 0.0, 0.0, 0.0, 0.0]
twist: 
  twist: 
    linear: 
      x: 0.0
      y: 0.19477893151
      z: 0.0
    angular: 
      x: 0.0
      y: 0.0
      z: 1.58603289232e-17
  covariance: [0.0, 0.0, 0.0, 0.0, 0.0, 0.0, 0.0, 0.0, 0.0, 0.0, 0.0, 0.0, 0.0, 0.0, 0.0, 0.0, 0.0, 0.0, 0.0, 0.0, 0.0, 0.0, 0.0, 0.0, 0.0, 0.0, 0.0, 0.0, 0.0, 0.0, 0.0, 0.0, 0.0, 0.0, 0.0, 0.0]
---
header: 
  seq: 2347
  stamp: 
    secs: 1
    nsecs: 200000048
  frame_id: odom
child_frame_id: base_link
pose: 
  pose: 
    position: 
      x: -0.0847577666142
      y: -0.636432830041
      z: 0.0
    orientation: 
      x: 0.0
      y: 0.0
      z: -0.00516116501709
      w: 0.999986681099
  covariance: [0.0, 0.0, 0.0, 0.0, 0.0, 0.0, 0.0, 0.0, 0.0, 0.0, 0.0, 0.0, 0.0, 0.0, 0.0, 0.0, 0.0, 0.0, 0.0, 0.0, 0.0, 0.0, 0.0, 0.0, 0.0, 0.0, 0.0, 0.0, 0.0, 0.0, 0.0, 0.0, 0.0, 0.0, 0.0, 0.0]
twist: 
  twist: 
    linear: 
      x: -0.0031415881297
      y: 0.191636875912
      z: 0.0
    angular: 
      x: 0.0
      y: 0.0
      z: 0.00897596608487
  covariance: [0.0, 0.0, 0.0, 0.0, 0.0, 0.0, 0.0, 0.0, 0.0, 0.0, 0.0, 0.0, 0.0, 0.0, 0.0, 0.0, 0.0, 0.0, 0.0, 0.0, 0.0, 0.0, 0.0, 0.0, 0.0, 0.0, 0.0, 0.0, 0.0, 0.0, 0.0, 0.0, 0.0, 0.0, 0.0, 0.0]
---
header: 
  seq: 2348
  stamp: 
    secs: 1
    nsecs: 250000000
  frame_id: odom
child_frame_id: base_link
pose: 
  pose: 
    position: 
      x: -0.0844941064271
      y: -0.626539079135
      z: 0.0
    orientation: 
      x: 0.0
      y: 0.0
      z: -0.00538556137177
      w: 0.999985497759
  covariance: [0.0, 0.0, 0.0, 0.0, 0.0, 0.0, 0.0, 0.0, 0.0, 0.0, 0.0, 0.0, 0.0, 0.0, 0.0, 0.0, 0.0, 0.0, 0.0, 0.0, 0.0, 0.0, 0.0, 0.0, 0.0, 0.0, 0.0, 0.0, 0.0, 0.0, 0.0, 0.0, 0.0, 0.0, 0.0, 0.0]
twist: 
  twist: 
    linear: 
      x: 0.00314159566952
      y: 0.19792052718
      z: 0.0
    angular: 
      x: 0.0
      y: 0.0
      z: -0.0089759876272
  covariance: [0.0, 0.0, 0.0, 0.0, 0.0, 0.0, 0.0, 0.0, 0.0, 0.0, 0.0, 0.0, 0.0, 0.0, 0.0, 0.0, 0.0, 0.0, 0.0, 0.0, 0.0, 0.0, 0.0, 0.0, 0.0, 0.0, 0.0, 0.0, 0.0, 0.0, 0.0, 0.0, 0.0, 0.0, 0.0, 0.0]
---
header: 
  seq: 2349
  stamp: 
    secs: 1
    nsecs: 299999952
  frame_id: odom
child_frame_id: base_link
pose: 
  pose: 
    position: 
      x: -0.0843892086601
      y: -0.61680070685
      z: 0.0
    orientation: 
      x: 0.0
      y: 0.0
      z: -0.00538556137177
      w: 0.999985497759
  covariance: [0.0, 0.0, 0.0, 0.0, 0.0, 0.0, 0.0, 0.0, 0.0, 0.0, 0.0, 0.0, 0.0, 0.0, 0.0, 0.0, 0.0, 0.0, 0.0, 0.0, 0.0, 0.0, 0.0, 0.0, 0.0, 0.0, 0.0, 0.0, 0.0, 0.0, 0.0, 0.0, 0.0, 0.0, 0.0, 0.0]
twist: 
  twist: 
    linear: 
      x: 0.0
      y: 0.19477893151
      z: 0.0
    angular: 
      x: 0.0
      y: 0.0
      z: 1.58603289232e-17
  covariance: [0.0, 0.0, 0.0, 0.0, 0.0, 0.0, 0.0, 0.0, 0.0, 0.0, 0.0, 0.0, 0.0, 0.0, 0.0, 0.0, 0.0, 0.0, 0.0, 0.0, 0.0, 0.0, 0.0, 0.0, 0.0, 0.0, 0.0, 0.0, 0.0, 0.0, 0.0, 0.0, 0.0, 0.0, 0.0, 0.0]
---
header: 
  seq: 2350
  stamp: 
    secs: 1
    nsecs: 350000024
  frame_id: odom
child_frame_id: base_link
pose: 
  pose: 
    position: 
      x: -0.0845316872684
      y: -0.615385444066
      z: 0.0
    orientation: 
      x: 0.0
      y: 0.0
      z: -0.00516116501709
      w: 0.999986681099
  covariance: [0.0, 0.0, 0.0, 0.0, 0.0, 0.0, 0.0, 0.0, 0.0, 0.0, 0.0, 0.0, 0.0, 0.0, 0.0, 0.0, 0.0, 0.0, 0.0, 0.0, 0.0, 0.0, 0.0, 0.0, 0.0, 0.0, 0.0, 0.0, 0.0, 0.0, 0.0, 0.0, 0.0, 0.0, 0.0, 0.0]
twist: 
  twist: 
    linear: 
      x: -0.0031415881297
      y: 0.0282742931673
      z: 0.0
    angular: 
      x: 0.0
      y: 0.0
      z: 0.00897596608487
  covariance: [0.0, 0.0, 0.0, 0.0, 0.0, 0.0, 0.0, 0.0, 0.0, 0.0, 0.0, 0.0, 0.0, 0.0, 0.0, 0.0, 0.0, 0.0, 0.0, 0.0, 0.0, 0.0, 0.0, 0.0, 0.0, 0.0, 0.0, 0.0, 0.0, 0.0, 0.0, 0.0, 0.0, 0.0, 0.0, 0.0]
---
header: 
  seq: 2351
  stamp: 
    secs: 1
    nsecs: 399999976
  frame_id: odom
child_frame_id: base_link
pose: 
  pose: 
    position: 
      x: -0.0843086326684
      y: -0.609261385658
      z: 0.0
    orientation: 
      x: 0.0
      y: 0.0
      z: -0.00538556137177
      w: 0.999985497759
  covariance: [0.0, 0.0, 0.0, 0.0, 0.0, 0.0, 0.0, 0.0, 0.0, 0.0, 0.0, 0.0, 0.0, 0.0, 0.0, 0.0, 0.0, 0.0, 0.0, 0.0, 0.0, 0.0, 0.0, 0.0, 0.0, 0.0, 0.0, 0.0, 0.0, 0.0, 0.0, 0.0, 0.0, 0.0, 0.0, 0.0]
twist: 
  twist: 
    linear: 
      x: 0.00314159566952
      y: 0.122522231111
      z: 0.0
    angular: 
      x: 0.0
      y: 0.0
      z: -0.0089759876272
  covariance: [0.0, 0.0, 0.0, 0.0, 0.0, 0.0, 0.0, 0.0, 0.0, 0.0, 0.0, 0.0, 0.0, 0.0, 0.0, 0.0, 0.0, 0.0, 0.0, 0.0, 0.0, 0.0, 0.0, 0.0, 0.0, 0.0, 0.0, 0.0, 0.0, 0.0, 0.0, 0.0, 0.0, 0.0, 0.0, 0.0]
---
header: 
  seq: 2352
  stamp: 
    secs: 1
    nsecs: 450000048
  frame_id: odom
child_frame_id: base_link
pose: 
  pose: 
    position: 
      x: -0.0841949938024
      y: -0.599523111452
      z: 0.0
    orientation: 
      x: 0.0
      y: 0.0
      z: -0.00583435325624
      w: 0.999982980016
  covariance: [0.0, 0.0, 0.0, 0.0, 0.0, 0.0, 0.0, 0.0, 0.0, 0.0, 0.0, 0.0, 0.0, 0.0, 0.0, 0.0, 0.0, 0.0, 0.0, 0.0, 0.0, 0.0, 0.0, 0.0, 0.0, 0.0, 0.0, 0.0, 0.0, 0.0, 0.0, 0.0, 0.0, 0.0, 0.0, 0.0]
twist: 
  twist: 
    linear: 
      x: 0.0
      y: 0.194778464042
      z: 0.0
    angular: 
      x: 0.0
      y: 0.0
      z: -0.0179519321697
  covariance: [0.0, 0.0, 0.0, 0.0, 0.0, 0.0, 0.0, 0.0, 0.0, 0.0, 0.0, 0.0, 0.0, 0.0, 0.0, 0.0, 0.0, 0.0, 0.0, 0.0, 0.0, 0.0, 0.0, 0.0, 0.0, 0.0, 0.0, 0.0, 0.0, 0.0, 0.0, 0.0, 0.0, 0.0, 0.0, 0.0]
---
header: 
  seq: 2353
  stamp: 
    secs: 1
    nsecs: 500000000
  frame_id: odom
child_frame_id: base_link
pose: 
  pose: 
    position: 
      x: -0.0840900960354
      y: -0.589784739167
      z: 0.0
    orientation: 
      x: 0.0
      y: 0.0
      z: -0.00538556137177
      w: 0.999985497759
  covariance: [0.0, 0.0, 0.0, 0.0, 0.0, 0.0, 0.0, 0.0, 0.0, 0.0, 0.0, 0.0, 0.0, 0.0, 0.0, 0.0, 0.0, 0.0, 0.0, 0.0, 0.0, 0.0, 0.0, 0.0, 0.0, 0.0, 0.0, 0.0, 0.0, 0.0, 0.0, 0.0, 0.0, 0.0, 0.0, 0.0]
twist: 
  twist: 
    linear: 
      x: 0.0
      y: 0.19477893151
      z: 0.0
    angular: 
      x: 0.0
      y: 0.0
      z: 0.0179519752544
  covariance: [0.0, 0.0, 0.0, 0.0, 0.0, 0.0, 0.0, 0.0, 0.0, 0.0, 0.0, 0.0, 0.0, 0.0, 0.0, 0.0, 0.0, 0.0, 0.0, 0.0, 0.0, 0.0, 0.0, 0.0, 0.0, 0.0, 0.0, 0.0, 0.0, 0.0, 0.0, 0.0, 0.0, 0.0, 0.0, 0.0]
---
header: 
  seq: 2354
  stamp: 
    secs: 1
    nsecs: 549999952
  frame_id: odom
child_frame_id: base_link
pose: 
  pose: 
    position: 
      x: -0.0839851982684
      y: -0.580046366883
      z: 0.0
    orientation: 
      x: 0.0
      y: 0.0
      z: -0.00538556137177
      w: 0.999985497759
  covariance: [0.0, 0.0, 0.0, 0.0, 0.0, 0.0, 0.0, 0.0, 0.0, 0.0, 0.0, 0.0, 0.0, 0.0, 0.0, 0.0, 0.0, 0.0, 0.0, 0.0, 0.0, 0.0, 0.0, 0.0, 0.0, 0.0, 0.0, 0.0, 0.0, 0.0, 0.0, 0.0, 0.0, 0.0, 0.0, 0.0]
twist: 
  twist: 
    linear: 
      x: 0.0
      y: 0.19477893151
      z: 0.0
    angular: 
      x: 0.0
      y: 0.0
      z: 1.58603289232e-17
  covariance: [0.0, 0.0, 0.0, 0.0, 0.0, 0.0, 0.0, 0.0, 0.0, 0.0, 0.0, 0.0, 0.0, 0.0, 0.0, 0.0, 0.0, 0.0, 0.0, 0.0, 0.0, 0.0, 0.0, 0.0, 0.0, 0.0, 0.0, 0.0, 0.0, 0.0, 0.0, 0.0, 0.0, 0.0, 0.0, 0.0]
---
header: 
  seq: 2355
  stamp: 
    secs: 1
    nsecs: 600000024
  frame_id: odom
child_frame_id: base_link
pose: 
  pose: 
    position: 
      x: -0.0840312372941
      y: -0.570149210519
      z: 0.0
    orientation: 
      x: 0.0
      y: 0.0
      z: -0.00560995745525
      w: 0.999984264065
  covariance: [0.0, 0.0, 0.0, 0.0, 0.0, 0.0, 0.0, 0.0, 0.0, 0.0, 0.0, 0.0, 0.0, 0.0, 0.0, 0.0, 0.0, 0.0, 0.0, 0.0, 0.0, 0.0, 0.0, 0.0, 0.0, 0.0, 0.0, 0.0, 0.0, 0.0, 0.0, 0.0, 0.0, 0.0, 0.0, 0.0]
twist: 
  twist: 
    linear: 
      x: -0.0031415881297
      y: 0.197920052171
      z: 0.0
    angular: 
      x: 0.0
      y: 0.0
      z: -0.00897596608487
  covariance: [0.0, 0.0, 0.0, 0.0, 0.0, 0.0, 0.0, 0.0, 0.0, 0.0, 0.0, 0.0, 0.0, 0.0, 0.0, 0.0, 0.0, 0.0, 0.0, 0.0, 0.0, 0.0, 0.0, 0.0, 0.0, 0.0, 0.0, 0.0, 0.0, 0.0, 0.0, 0.0, 0.0, 0.0, 0.0, 0.0]
---
header: 
  seq: 2356
  stamp: 
    secs: 1
    nsecs: 649999976
  frame_id: odom
child_frame_id: base_link
pose: 
  pose: 
    position: 
      x: -0.0837623623741
      y: -0.560569838137
      z: 0.0
    orientation: 
      x: 0.0
      y: 0.0
      z: -0.00583435325624
      w: 0.999982980016
  covariance: [0.0, 0.0, 0.0, 0.0, 0.0, 0.0, 0.0, 0.0, 0.0, 0.0, 0.0, 0.0, 0.0, 0.0, 0.0, 0.0, 0.0, 0.0, 0.0, 0.0, 0.0, 0.0, 0.0, 0.0, 0.0, 0.0, 0.0, 0.0, 0.0, 0.0, 0.0, 0.0, 0.0, 0.0, 0.0, 0.0]
twist: 
  twist: 
    linear: 
      x: 0.00314159566952
      y: 0.191637335841
      z: 0.0
    angular: 
      x: 0.0
      y: 0.0
      z: -0.0089759876272
  covariance: [0.0, 0.0, 0.0, 0.0, 0.0, 0.0, 0.0, 0.0, 0.0, 0.0, 0.0, 0.0, 0.0, 0.0, 0.0, 0.0, 0.0, 0.0, 0.0, 0.0, 0.0, 0.0, 0.0, 0.0, 0.0, 0.0, 0.0, 0.0, 0.0, 0.0, 0.0, 0.0, 0.0, 0.0, 0.0, 0.0]
---
header: 
  seq: 2357
  stamp: 
    secs: 1
    nsecs: 700000048
  frame_id: odom
child_frame_id: base_link
pose: 
  pose: 
    position: 
      x: -0.0839628613857
      y: -0.550827898162
      z: 0.0
    orientation: 
      x: 0.0
      y: 0.0
      z: -0.00583435325624
      w: 0.999982980016
  covariance: [0.0, 0.0, 0.0, 0.0, 0.0, 0.0, 0.0, 0.0, 0.0, 0.0, 0.0, 0.0, 0.0, 0.0, 0.0, 0.0, 0.0, 0.0, 0.0, 0.0, 0.0, 0.0, 0.0, 0.0, 0.0, 0.0, 0.0, 0.0, 0.0, 0.0, 0.0, 0.0, 0.0, 0.0, 0.0, 0.0]
twist: 
  twist: 
    linear: 
      x: -0.00628317625941
      y: 0.194778464042
      z: 0.0
    angular: 
      x: 0.0
      y: 0.0
      z: 0.0
  covariance: [0.0, 0.0, 0.0, 0.0, 0.0, 0.0, 0.0, 0.0, 0.0, 0.0, 0.0, 0.0, 0.0, 0.0, 0.0, 0.0, 0.0, 0.0, 0.0, 0.0, 0.0, 0.0, 0.0, 0.0, 0.0, 0.0, 0.0, 0.0, 0.0, 0.0, 0.0, 0.0, 0.0, 0.0, 0.0, 0.0]
---
header: 
  seq: 2358
  stamp: 
    secs: 1
    nsecs: 750000000
  frame_id: odom
child_frame_id: base_link
pose: 
  pose: 
    position: 
      x: -0.0836947609202
      y: -0.540934266583
      z: 0.0
    orientation: 
      x: 0.0
      y: 0.0
      z: -0.00560995745525
      w: 0.999984264065
  covariance: [0.0, 0.0, 0.0, 0.0, 0.0, 0.0, 0.0, 0.0, 0.0, 0.0, 0.0, 0.0, 0.0, 0.0, 0.0, 0.0, 0.0, 0.0, 0.0, 0.0, 0.0, 0.0, 0.0, 0.0, 0.0, 0.0, 0.0, 0.0, 0.0, 0.0, 0.0, 0.0, 0.0, 0.0, 0.0, 0.0]
twist: 
  twist: 
    linear: 
      x: 0.00314159566952
      y: 0.19792052718
      z: 0.0
    angular: 
      x: 0.0
      y: 0.0
      z: 0.0089759876272
  covariance: [0.0, 0.0, 0.0, 0.0, 0.0, 0.0, 0.0, 0.0, 0.0, 0.0, 0.0, 0.0, 0.0, 0.0, 0.0, 0.0, 0.0, 0.0, 0.0, 0.0, 0.0, 0.0, 0.0, 0.0, 0.0, 0.0, 0.0, 0.0, 0.0, 0.0, 0.0, 0.0, 0.0, 0.0, 0.0, 0.0]
---
header: 
  seq: 2359
  stamp: 
    secs: 1
    nsecs: 799999952
  frame_id: odom
child_frame_id: base_link
pose: 
  pose: 
    position: 
      x: -0.0835854925926
      y: -0.531195942357
      z: 0.0
    orientation: 
      x: 0.0
      y: 0.0
      z: -0.00560995745525
      w: 0.999984264065
  covariance: [0.0, 0.0, 0.0, 0.0, 0.0, 0.0, 0.0, 0.0, 0.0, 0.0, 0.0, 0.0, 0.0, 0.0, 0.0, 0.0, 0.0, 0.0, 0.0, 0.0, 0.0, 0.0, 0.0, 0.0, 0.0, 0.0, 0.0, 0.0, 0.0, 0.0, 0.0, 0.0, 0.0, 0.0, 0.0, 0.0]
twist: 
  twist: 
    linear: 
      x: 0.0
      y: 0.19477893151
      z: 0.0
    angular: 
      x: 0.0
      y: 0.0
      z: 1.58603289232e-17
  covariance: [0.0, 0.0, 0.0, 0.0, 0.0, 0.0, 0.0, 0.0, 0.0, 0.0, 0.0, 0.0, 0.0, 0.0, 0.0, 0.0, 0.0, 0.0, 0.0, 0.0, 0.0, 0.0, 0.0, 0.0, 0.0, 0.0, 0.0, 0.0, 0.0, 0.0, 0.0, 0.0, 0.0, 0.0, 0.0, 0.0]
---
header: 
  seq: 2360
  stamp: 
    secs: 1
    nsecs: 850000024
  frame_id: odom
child_frame_id: base_link
pose: 
  pose: 
    position: 
      x: -0.0834674832109
      y: -0.521457720133
      z: 0.0
    orientation: 
      x: 0.0
      y: 0.0
      z: -0.00605874876345
      w: 0.999981645613
  covariance: [0.0, 0.0, 0.0, 0.0, 0.0, 0.0, 0.0, 0.0, 0.0, 0.0, 0.0, 0.0, 0.0, 0.0, 0.0, 0.0, 0.0, 0.0, 0.0, 0.0, 0.0, 0.0, 0.0, 0.0, 0.0, 0.0, 0.0, 0.0, 0.0, 0.0, 0.0, 0.0, 0.0, 0.0, 0.0, 0.0]
twist: 
  twist: 
    linear: 
      x: 0.0
      y: 0.194778464042
      z: 0.0
    angular: 
      x: 0.0
      y: 0.0
      z: -0.0179519321697
  covariance: [0.0, 0.0, 0.0, 0.0, 0.0, 0.0, 0.0, 0.0, 0.0, 0.0, 0.0, 0.0, 0.0, 0.0, 0.0, 0.0, 0.0, 0.0, 0.0, 0.0, 0.0, 0.0, 0.0, 0.0, 0.0, 0.0, 0.0, 0.0, 0.0, 0.0, 0.0, 0.0, 0.0, 0.0, 0.0, 0.0]
---
header: 
  seq: 2361
  stamp: 
    secs: 1
    nsecs: 899999976
  frame_id: odom
child_frame_id: base_link
pose: 
  pose: 
    position: 
      x: -0.083295185595
      y: -0.520045777346
      z: 0.0
    orientation: 
      x: 0.0
      y: 0.0
      z: -0.00538556137177
      w: 0.999985497759
  covariance: [0.0, 0.0, 0.0, 0.0, 0.0, 0.0, 0.0, 0.0, 0.0, 0.0, 0.0, 0.0, 0.0, 0.0, 0.0, 0.0, 0.0, 0.0, 0.0, 0.0, 0.0, 0.0, 0.0, 0.0, 0.0, 0.0, 0.0, 0.0, 0.0, 0.0, 0.0, 0.0, 0.0, 0.0, 0.0, 0.0]
twist: 
  twist: 
    linear: 
      x: 0.00314159566952
      y: 0.0282743610257
      z: 0.0
    angular: 
      x: 0.0
      y: 0.0
      z: 0.0269279628816
  covariance: [0.0, 0.0, 0.0, 0.0, 0.0, 0.0, 0.0, 0.0, 0.0, 0.0, 0.0, 0.0, 0.0, 0.0, 0.0, 0.0, 0.0, 0.0, 0.0, 0.0, 0.0, 0.0, 0.0, 0.0, 0.0, 0.0, 0.0, 0.0, 0.0, 0.0, 0.0, 0.0, 0.0, 0.0, 0.0, 0.0]
---
header: 
  seq: 2362
  stamp: 
    secs: 1
    nsecs: 950000048
  frame_id: odom
child_frame_id: base_link
pose: 
  pose: 
    position: 
      x: -0.083295185595
      y: -0.520045777346
      z: 0.0
    orientation: 
      x: 0.0
      y: 0.0
      z: -0.00538556137177
      w: 0.999985497759
  covariance: [0.0, 0.0, 0.0, 0.0, 0.0, 0.0, 0.0, 0.0, 0.0, 0.0, 0.0, 0.0, 0.0, 0.0, 0.0, 0.0, 0.0, 0.0, 0.0, 0.0, 0.0, 0.0, 0.0, 0.0, 0.0, 0.0, 0.0, 0.0, 0.0, 0.0, 0.0, 0.0, 0.0, 0.0, 0.0, 0.0]
twist: 
  twist: 
    linear: 
      x: 0.0
      y: 0.0
      z: 0.0
    angular: 
      x: 0.0
      y: 0.0
      z: 0.0
  covariance: [0.0, 0.0, 0.0, 0.0, 0.0, 0.0, 0.0, 0.0, 0.0, 0.0, 0.0, 0.0, 0.0, 0.0, 0.0, 0.0, 0.0, 0.0, 0.0, 0.0, 0.0, 0.0, 0.0, 0.0, 0.0, 0.0, 0.0, 0.0, 0.0, 0.0, 0.0, 0.0, 0.0, 0.0, 0.0, 0.0]
---
header: 
  seq: 2363
  stamp: 
    secs: 2
    nsecs:         0
  frame_id: odom
child_frame_id: base_link
pose: 
  pose: 
    position: 
      x: -0.083295185595
      y: -0.520045777346
      z: 0.0
    orientation: 
      x: 0.0
      y: 0.0
      z: -0.00538556137177
      w: 0.999985497759
  covariance: [0.0, 0.0, 0.0, 0.0, 0.0, 0.0, 0.0, 0.0, 0.0, 0.0, 0.0, 0.0, 0.0, 0.0, 0.0, 0.0, 0.0, 0.0, 0.0, 0.0, 0.0, 0.0, 0.0, 0.0, 0.0, 0.0, 0.0, 0.0, 0.0, 0.0, 0.0, 0.0, 0.0, 0.0, 0.0, 0.0]
twist: 
  twist: 
    linear: 
      x: 0.0
      y: 0.0
      z: 0.0
    angular: 
      x: 0.0
      y: 0.0
      z: 0.0
  covariance: [0.0, 0.0, 0.0, 0.0, 0.0, 0.0, 0.0, 0.0, 0.0, 0.0, 0.0, 0.0, 0.0, 0.0, 0.0, 0.0, 0.0, 0.0, 0.0, 0.0, 0.0, 0.0, 0.0, 0.0, 0.0, 0.0, 0.0, 0.0, 0.0, 0.0, 0.0, 0.0, 0.0, 0.0, 0.0, 0.0]
---
header: 
  seq: 2364
  stamp: 
    secs: 2
    nsecs:  49999952
  frame_id: odom
child_frame_id: base_link
pose: 
  pose: 
    position: 
      x: -0.0830638857868
      y: -0.513922024808
      z: 0.0
    orientation: 
      x: 0.0
      y: 0.0
      z: -0.00605874876345
      w: 0.999981645613
  covariance: [0.0, 0.0, 0.0, 0.0, 0.0, 0.0, 0.0, 0.0, 0.0, 0.0, 0.0, 0.0, 0.0, 0.0, 0.0, 0.0, 0.0, 0.0, 0.0, 0.0, 0.0, 0.0, 0.0, 0.0, 0.0, 0.0, 0.0, 0.0, 0.0, 0.0, 0.0, 0.0, 0.0, 0.0, 0.0, 0.0]
twist: 
  twist: 
    linear: 
      x: 0.00314159566952
      y: 0.122522231111
      z: 0.0
    angular: 
      x: 0.0
      y: 0.0
      z: -0.0269279628816
  covariance: [0.0, 0.0, 0.0, 0.0, 0.0, 0.0, 0.0, 0.0, 0.0, 0.0, 0.0, 0.0, 0.0, 0.0, 0.0, 0.0, 0.0, 0.0, 0.0, 0.0, 0.0, 0.0, 0.0, 0.0, 0.0, 0.0, 0.0, 0.0, 0.0, 0.0, 0.0, 0.0, 0.0, 0.0, 0.0, 0.0]
---
header: 
  seq: 2365
  stamp: 
    secs: 2
    nsecs:  99999905
  frame_id: odom
child_frame_id: base_link
pose: 
  pose: 
    position: 
      x: -0.0830965992746
      y: -0.504024815428
      z: 0.0
    orientation: 
      x: 0.0
      y: 0.0
      z: -0.00628314396556
      w: 0.999980260856
  covariance: [0.0, 0.0, 0.0, 0.0, 0.0, 0.0, 0.0, 0.0, 0.0, 0.0, 0.0, 0.0, 0.0, 0.0, 0.0, 0.0, 0.0, 0.0, 0.0, 0.0, 0.0, 0.0, 0.0, 0.0, 0.0, 0.0, 0.0, 0.0, 0.0, 0.0, 0.0, 0.0, 0.0, 0.0, 0.0, 0.0]
twist: 
  twist: 
    linear: 
      x: -0.00314159560669
      y: 0.197920523221
      z: 0.0
    angular: 
      x: 0.0
      y: 0.0
      z: -0.00897598744768
  covariance: [0.0, 0.0, 0.0, 0.0, 0.0, 0.0, 0.0, 0.0, 0.0, 0.0, 0.0, 0.0, 0.0, 0.0, 0.0, 0.0, 0.0, 0.0, 0.0, 0.0, 0.0, 0.0, 0.0, 0.0, 0.0, 0.0, 0.0, 0.0, 0.0, 0.0, 0.0, 0.0, 0.0, 0.0, 0.0, 0.0]
---
header: 
  seq: 2366
  stamp: 
    secs: 2
    nsecs: 150000095
  frame_id: odom
child_frame_id: base_link
pose: 
  pose: 
    position: 
      x: -0.0828234251696
      y: -0.494445564682
      z: 0.0
    orientation: 
      x: 0.0
      y: 0.0
      z: -0.00605874876345
      w: 0.999981645613
  covariance: [0.0, 0.0, 0.0, 0.0, 0.0, 0.0, 0.0, 0.0, 0.0, 0.0, 0.0, 0.0, 0.0, 0.0, 0.0, 0.0, 0.0, 0.0, 0.0, 0.0, 0.0, 0.0, 0.0, 0.0, 0.0, 0.0, 0.0, 0.0, 0.0, 0.0, 0.0, 0.0, 0.0, 0.0, 0.0, 0.0]
twist: 
  twist: 
    linear: 
      x: 0.00314158071558
      y: 0.191636423651
      z: 0.0
    angular: 
      x: 0.0
      y: 0.0
      z: 0.00897594490167
  covariance: [0.0, 0.0, 0.0, 0.0, 0.0, 0.0, 0.0, 0.0, 0.0, 0.0, 0.0, 0.0, 0.0, 0.0, 0.0, 0.0, 0.0, 0.0, 0.0, 0.0, 0.0, 0.0, 0.0, 0.0, 0.0, 0.0, 0.0, 0.0, 0.0, 0.0, 0.0, 0.0, 0.0, 0.0, 0.0, 0.0]
---
header: 
  seq: 2367
  stamp: 
    secs: 2
    nsecs: 200000048
  frame_id: odom
child_frame_id: base_link
pose: 
  pose: 
    position: 
      x: -0.0827054157878
      y: -0.484707342458
      z: 0.0
    orientation: 
      x: 0.0
      y: 0.0
      z: -0.00605874876345
      w: 0.999981645613
  covariance: [0.0, 0.0, 0.0, 0.0, 0.0, 0.0, 0.0, 0.0, 0.0, 0.0, 0.0, 0.0, 0.0, 0.0, 0.0, 0.0, 0.0, 0.0, 0.0, 0.0, 0.0, 0.0, 0.0, 0.0, 0.0, 0.0, 0.0, 0.0, 0.0, 0.0, 0.0, 0.0, 0.0, 0.0, 0.0, 0.0]
twist: 
  twist: 
    linear: 
      x: 0.0
      y: 0.194778927615
      z: 0.0
    angular: 
      x: 0.0
      y: 0.0
      z: -1.58603289232e-17
  covariance: [0.0, 0.0, 0.0, 0.0, 0.0, 0.0, 0.0, 0.0, 0.0, 0.0, 0.0, 0.0, 0.0, 0.0, 0.0, 0.0, 0.0, 0.0, 0.0, 0.0, 0.0, 0.0, 0.0, 0.0, 0.0, 0.0, 0.0, 0.0, 0.0, 0.0, 0.0, 0.0, 0.0, 0.0, 0.0, 0.0]
---
header: 
  seq: 2368
  stamp: 
    secs: 2
    nsecs: 250000000
  frame_id: odom
child_frame_id: base_link
pose: 
  pose: 
    position: 
      x: -0.0827381292756
      y: -0.474810133078
      z: 0.0
    orientation: 
      x: 0.0
      y: 0.0
      z: -0.00628314396556
      w: 0.999980260856
  covariance: [0.0, 0.0, 0.0, 0.0, 0.0, 0.0, 0.0, 0.0, 0.0, 0.0, 0.0, 0.0, 0.0, 0.0, 0.0, 0.0, 0.0, 0.0, 0.0, 0.0, 0.0, 0.0, 0.0, 0.0, 0.0, 0.0, 0.0, 0.0, 0.0, 0.0, 0.0, 0.0, 0.0, 0.0, 0.0, 0.0]
twist: 
  twist: 
    linear: 
      x: -0.00314159566952
      y: 0.19792052718
      z: 0.0
    angular: 
      x: 0.0
      y: 0.0
      z: -0.0089759876272
  covariance: [0.0, 0.0, 0.0, 0.0, 0.0, 0.0, 0.0, 0.0, 0.0, 0.0, 0.0, 0.0, 0.0, 0.0, 0.0, 0.0, 0.0, 0.0, 0.0, 0.0, 0.0, 0.0, 0.0, 0.0, 0.0, 0.0, 0.0, 0.0, 0.0, 0.0, 0.0, 0.0, 0.0, 0.0, 0.0, 0.0]
---
header: 
  seq: 2369
  stamp: 
    secs: 2
    nsecs: 299999952
  frame_id: odom
child_frame_id: base_link
pose: 
  pose: 
    position: 
      x: -0.0824563569665
      y: -0.465231131392
      z: 0.0
    orientation: 
      x: 0.0
      y: 0.0
      z: -0.00650753885128
      w: 0.999978825745
  covariance: [0.0, 0.0, 0.0, 0.0, 0.0, 0.0, 0.0, 0.0, 0.0, 0.0, 0.0, 0.0, 0.0, 0.0, 0.0, 0.0, 0.0, 0.0, 0.0, 0.0, 0.0, 0.0, 0.0, 0.0, 0.0, 0.0, 0.0, 0.0, 0.0, 0.0, 0.0, 0.0, 0.0, 0.0, 0.0, 0.0]
twist: 
  twist: 
    linear: 
      x: 0.00314159566952
      y: 0.191637335841
      z: 0.0
    angular: 
      x: 0.0
      y: 0.0
      z: -0.0089759876272
  covariance: [0.0, 0.0, 0.0, 0.0, 0.0, 0.0, 0.0, 0.0, 0.0, 0.0, 0.0, 0.0, 0.0, 0.0, 0.0, 0.0, 0.0, 0.0, 0.0, 0.0, 0.0, 0.0, 0.0, 0.0, 0.0, 0.0, 0.0, 0.0, 0.0, 0.0, 0.0, 0.0, 0.0, 0.0, 0.0, 0.0]
---
header: 
  seq: 2370
  stamp: 
    secs: 2
    nsecs: 349999905
  frame_id: odom
child_frame_id: base_link
pose: 
  pose: 
    position: 
      x: -0.0824890704543
      y: -0.455333922012
      z: 0.0
    orientation: 
      x: 0.0
      y: 0.0
      z: -0.00628314396556
      w: 0.999980260856
  covariance: [0.0, 0.0, 0.0, 0.0, 0.0, 0.0, 0.0, 0.0, 0.0, 0.0, 0.0, 0.0, 0.0, 0.0, 0.0, 0.0, 0.0, 0.0, 0.0, 0.0, 0.0, 0.0, 0.0, 0.0, 0.0, 0.0, 0.0, 0.0, 0.0, 0.0, 0.0, 0.0, 0.0, 0.0, 0.0, 0.0]
twist: 
  twist: 
    linear: 
      x: -0.00314159560669
      y: 0.197920523221
      z: 0.0
    angular: 
      x: 0.0
      y: 0.0
      z: 0.00897598744768
  covariance: [0.0, 0.0, 0.0, 0.0, 0.0, 0.0, 0.0, 0.0, 0.0, 0.0, 0.0, 0.0, 0.0, 0.0, 0.0, 0.0, 0.0, 0.0, 0.0, 0.0, 0.0, 0.0, 0.0, 0.0, 0.0, 0.0, 0.0, 0.0, 0.0, 0.0, 0.0, 0.0, 0.0, 0.0, 0.0, 0.0]
---
header: 
  seq: 2371
  stamp: 
    secs: 2
    nsecs: 400000095
  frame_id: odom
child_frame_id: base_link
pose: 
  pose: 
    position: 
      x: -0.0823148719598
      y: -0.453922212485
      z: 0.0
    orientation: 
      x: 0.0
      y: 0.0
      z: -0.00605874876345
      w: 0.999981645613
  covariance: [0.0, 0.0, 0.0, 0.0, 0.0, 0.0, 0.0, 0.0, 0.0, 0.0, 0.0, 0.0, 0.0, 0.0, 0.0, 0.0, 0.0, 0.0, 0.0, 0.0, 0.0, 0.0, 0.0, 0.0, 0.0, 0.0, 0.0, 0.0, 0.0, 0.0, 0.0, 0.0, 0.0, 0.0, 0.0, 0.0]
twist: 
  twist: 
    linear: 
      x: 0.00314158071558
      y: 0.0282742264402
      z: 0.0
    angular: 
      x: 0.0
      y: 0.0
      z: 0.00897594490167
  covariance: [0.0, 0.0, 0.0, 0.0, 0.0, 0.0, 0.0, 0.0, 0.0, 0.0, 0.0, 0.0, 0.0, 0.0, 0.0, 0.0, 0.0, 0.0, 0.0, 0.0, 0.0, 0.0, 0.0, 0.0, 0.0, 0.0, 0.0, 0.0, 0.0, 0.0, 0.0, 0.0, 0.0, 0.0, 0.0, 0.0]
---
header: 
  seq: 2372
  stamp: 
    secs: 2
    nsecs: 450000048
  frame_id: odom
child_frame_id: base_link
pose: 
  pose: 
    position: 
      x: -0.0823148719598
      y: -0.453922212485
      z: 0.0
    orientation: 
      x: 0.0
      y: 0.0
      z: -0.00605874876345
      w: 0.999981645613
  covariance: [0.0, 0.0, 0.0, 0.0, 0.0, 0.0, 0.0, 0.0, 0.0, 0.0, 0.0, 0.0, 0.0, 0.0, 0.0, 0.0, 0.0, 0.0, 0.0, 0.0, 0.0, 0.0, 0.0, 0.0, 0.0, 0.0, 0.0, 0.0, 0.0, 0.0, 0.0, 0.0, 0.0, 0.0, 0.0, 0.0]
twist: 
  twist: 
    linear: 
      x: 0.0
      y: 0.0
      z: 0.0
    angular: 
      x: 0.0
      y: 0.0
      z: 0.0
  covariance: [0.0, 0.0, 0.0, 0.0, 0.0, 0.0, 0.0, 0.0, 0.0, 0.0, 0.0, 0.0, 0.0, 0.0, 0.0, 0.0, 0.0, 0.0, 0.0, 0.0, 0.0, 0.0, 0.0, 0.0, 0.0, 0.0, 0.0, 0.0, 0.0, 0.0, 0.0, 0.0, 0.0, 0.0, 0.0, 0.0]
---
header: 
  seq: 2373
  stamp: 
    secs: 2
    nsecs: 500000000
  frame_id: odom
child_frame_id: base_link
pose: 
  pose: 
    position: 
      x: -0.0820808238412
      y: -0.447798564371
      z: 0.0
    orientation: 
      x: 0.0
      y: 0.0
      z: -0.00628314396556
      w: 0.999980260856
  covariance: [0.0, 0.0, 0.0, 0.0, 0.0, 0.0, 0.0, 0.0, 0.0, 0.0, 0.0, 0.0, 0.0, 0.0, 0.0, 0.0, 0.0, 0.0, 0.0, 0.0, 0.0, 0.0, 0.0, 0.0, 0.0, 0.0, 0.0, 0.0, 0.0, 0.0, 0.0, 0.0, 0.0, 0.0, 0.0, 0.0]
twist: 
  twist: 
    linear: 
      x: 0.00314159566952
      y: 0.122522231111
      z: 0.0
    angular: 
      x: 0.0
      y: 0.0
      z: -0.0089759876272
  covariance: [0.0, 0.0, 0.0, 0.0, 0.0, 0.0, 0.0, 0.0, 0.0, 0.0, 0.0, 0.0, 0.0, 0.0, 0.0, 0.0, 0.0, 0.0, 0.0, 0.0, 0.0, 0.0, 0.0, 0.0, 0.0, 0.0, 0.0, 0.0, 0.0, 0.0, 0.0, 0.0, 0.0, 0.0, 0.0, 0.0]
---
header: 
  seq: 2374
  stamp: 
    secs: 2
    nsecs: 549999952
  frame_id: odom
child_frame_id: base_link
pose: 
  pose: 
    position: 
      x: -0.0821131841894
      y: -0.438215473964
      z: 0.0
    orientation: 
      x: 0.0
      y: 0.0
      z: -0.00650753885128
      w: 0.999978825745
  covariance: [0.0, 0.0, 0.0, 0.0, 0.0, 0.0, 0.0, 0.0, 0.0, 0.0, 0.0, 0.0, 0.0, 0.0, 0.0, 0.0, 0.0, 0.0, 0.0, 0.0, 0.0, 0.0, 0.0, 0.0, 0.0, 0.0, 0.0, 0.0, 0.0, 0.0, 0.0, 0.0, 0.0, 0.0, 0.0, 0.0]
twist: 
  twist: 
    linear: 
      x: -0.00314159566952
      y: 0.191637335841
      z: 0.0
    angular: 
      x: 0.0
      y: 0.0
      z: -0.0089759876272
  covariance: [0.0, 0.0, 0.0, 0.0, 0.0, 0.0, 0.0, 0.0, 0.0, 0.0, 0.0, 0.0, 0.0, 0.0, 0.0, 0.0, 0.0, 0.0, 0.0, 0.0, 0.0, 0.0, 0.0, 0.0, 0.0, 0.0, 0.0, 0.0, 0.0, 0.0, 0.0, 0.0, 0.0, 0.0, 0.0, 0.0]
---
header: 
  seq: 2375
  stamp: 
    secs: 2
    nsecs: 599999905
  frame_id: odom
child_frame_id: base_link
pose: 
  pose: 
    position: 
      x: -0.0819864338485
      y: -0.428477361588
      z: 0.0
    orientation: 
      x: 0.0
      y: 0.0
      z: -0.00650753885128
      w: 0.999978825745
  covariance: [0.0, 0.0, 0.0, 0.0, 0.0, 0.0, 0.0, 0.0, 0.0, 0.0, 0.0, 0.0, 0.0, 0.0, 0.0, 0.0, 0.0, 0.0, 0.0, 0.0, 0.0, 0.0, 0.0, 0.0, 0.0, 0.0, 0.0, 0.0, 0.0, 0.0, 0.0, 0.0, 0.0, 0.0, 0.0, 0.0]
twist: 
  twist: 
    linear: 
      x: 0.0
      y: 0.194778927615
      z: 0.0
    angular: 
      x: 0.0
      y: 0.0
      z: -1.58603289232e-17
  covariance: [0.0, 0.0, 0.0, 0.0, 0.0, 0.0, 0.0, 0.0, 0.0, 0.0, 0.0, 0.0, 0.0, 0.0, 0.0, 0.0, 0.0, 0.0, 0.0, 0.0, 0.0, 0.0, 0.0, 0.0, 0.0, 0.0, 0.0, 0.0, 0.0, 0.0, 0.0, 0.0, 0.0, 0.0, 0.0, 0.0]
---
header: 
  seq: 2376
  stamp: 
    secs: 2
    nsecs: 650000095
  frame_id: odom
child_frame_id: base_link
pose: 
  pose: 
    position: 
      x: -0.081855594787
      y: -0.418425116555
      z: 0.0
    orientation: 
      x: 0.0
      y: 0.0
      z: -0.00650753885128
      w: 0.999978825745
  covariance: [0.0, 0.0, 0.0, 0.0, 0.0, 0.0, 0.0, 0.0, 0.0, 0.0, 0.0, 0.0, 0.0, 0.0, 0.0, 0.0, 0.0, 0.0, 0.0, 0.0, 0.0, 0.0, 0.0, 0.0, 0.0, 0.0, 0.0, 0.0, 0.0, 0.0, 0.0, 0.0, 0.0, 0.0, 0.0, 0.0]
twist: 
  twist: 
    linear: 
      x: 0.0
      y: 0.201061165797
      z: 0.0
    angular: 
      x: 0.0
      y: 0.0
      z: 0.0
  covariance: [0.0, 0.0, 0.0, 0.0, 0.0, 0.0, 0.0, 0.0, 0.0, 0.0, 0.0, 0.0, 0.0, 0.0, 0.0, 0.0, 0.0, 0.0, 0.0, 0.0, 0.0, 0.0, 0.0, 0.0, 0.0, 0.0, 0.0, 0.0, 0.0, 0.0, 0.0, 0.0, 0.0, 0.0, 0.0, 0.0]
---
header: 
  seq: 2377
  stamp: 
    secs: 2
    nsecs: 700000048
  frame_id: odom
child_frame_id: base_link
pose: 
  pose: 
    position: 
      x: -0.0816847104742
      y: -0.417327619811
      z: 0.0
    orientation: 
      x: 0.0
      y: 0.0
      z: -0.00628314396556
      w: 0.999980260856
  covariance: [0.0, 0.0, 0.0, 0.0, 0.0, 0.0, 0.0, 0.0, 0.0, 0.0, 0.0, 0.0, 0.0, 0.0, 0.0, 0.0, 0.0, 0.0, 0.0, 0.0, 0.0, 0.0, 0.0, 0.0, 0.0, 0.0, 0.0, 0.0, 0.0, 0.0, 0.0, 0.0, 0.0, 0.0, 0.0, 0.0]
twist: 
  twist: 
    linear: 
      x: 0.00314159560669
      y: 0.0219911692468
      z: 0.0
    angular: 
      x: 0.0
      y: 0.0
      z: 0.00897598744768
  covariance: [0.0, 0.0, 0.0, 0.0, 0.0, 0.0, 0.0, 0.0, 0.0, 0.0, 0.0, 0.0, 0.0, 0.0, 0.0, 0.0, 0.0, 0.0, 0.0, 0.0, 0.0, 0.0, 0.0, 0.0, 0.0, 0.0, 0.0, 0.0, 0.0, 0.0, 0.0, 0.0, 0.0, 0.0, 0.0, 0.0]
---
header: 
  seq: 2378
  stamp: 
    secs: 2
    nsecs: 750000000
  frame_id: odom
child_frame_id: base_link
pose: 
  pose: 
    position: 
      x: -0.0818398751974
      y: -0.417168648334
      z: 0.0
    orientation: 
      x: 0.0
      y: 0.0
      z: -0.00605874876345
      w: 0.999981645613
  covariance: [0.0, 0.0, 0.0, 0.0, 0.0, 0.0, 0.0, 0.0, 0.0, 0.0, 0.0, 0.0, 0.0, 0.0, 0.0, 0.0, 0.0, 0.0, 0.0, 0.0, 0.0, 0.0, 0.0, 0.0, 0.0, 0.0, 0.0, 0.0, 0.0, 0.0, 0.0, 0.0, 0.0, 0.0, 0.0, 0.0]
twist: 
  twist: 
    linear: 
      x: -0.00314159566952
      y: 0.00314159566952
      z: 0.0
    angular: 
      x: 0.0
      y: 0.0
      z: 0.0089759876272
  covariance: [0.0, 0.0, 0.0, 0.0, 0.0, 0.0, 0.0, 0.0, 0.0, 0.0, 0.0, 0.0, 0.0, 0.0, 0.0, 0.0, 0.0, 0.0, 0.0, 0.0, 0.0, 0.0, 0.0, 0.0, 0.0, 0.0, 0.0, 0.0, 0.0, 0.0, 0.0, 0.0, 0.0, 0.0, 0.0, 0.0]
---
header: 
  seq: 2379
  stamp: 
    secs: 2
    nsecs: 799999952
  frame_id: odom
child_frame_id: base_link
pose: 
  pose: 
    position: 
      x: -0.0814480568474
      y: -0.411204216566
      z: 0.0
    orientation: 
      x: 0.0
      y: 0.0
      z: -0.00650753885128
      w: 0.999978825745
  covariance: [0.0, 0.0, 0.0, 0.0, 0.0, 0.0, 0.0, 0.0, 0.0, 0.0, 0.0, 0.0, 0.0, 0.0, 0.0, 0.0, 0.0, 0.0, 0.0, 0.0, 0.0, 0.0, 0.0, 0.0, 0.0, 0.0, 0.0, 0.0, 0.0, 0.0, 0.0, 0.0, 0.0, 0.0, 0.0, 0.0]
twist: 
  twist: 
    linear: 
      x: 0.00628319133904
      y: 0.119380635442
      z: 0.0
    angular: 
      x: 0.0
      y: 0.0
      z: -0.0179519752544
  covariance: [0.0, 0.0, 0.0, 0.0, 0.0, 0.0, 0.0, 0.0, 0.0, 0.0, 0.0, 0.0, 0.0, 0.0, 0.0, 0.0, 0.0, 0.0, 0.0, 0.0, 0.0, 0.0, 0.0, 0.0, 0.0, 0.0, 0.0, 0.0, 0.0, 0.0, 0.0, 0.0, 0.0, 0.0, 0.0, 0.0]
---
header: 
  seq: 2380
  stamp: 
    secs: 2
    nsecs: 849999905
  frame_id: odom
child_frame_id: base_link
pose: 
  pose: 
    position: 
      x: -0.0814718866088
      y: -0.40130698181
      z: 0.0
    orientation: 
      x: 0.0
      y: 0.0
      z: -0.00673193340932
      w: 0.99997734028
  covariance: [0.0, 0.0, 0.0, 0.0, 0.0, 0.0, 0.0, 0.0, 0.0, 0.0, 0.0, 0.0, 0.0, 0.0, 0.0, 0.0, 0.0, 0.0, 0.0, 0.0, 0.0, 0.0, 0.0, 0.0, 0.0, 0.0, 0.0, 0.0, 0.0, 0.0, 0.0, 0.0, 0.0, 0.0, 0.0, 0.0]
twist: 
  twist: 
    linear: 
      x: -0.00314159560669
      y: 0.197920523221
      z: 0.0
    angular: 
      x: 0.0
      y: 0.0
      z: -0.00897598744768
  covariance: [0.0, 0.0, 0.0, 0.0, 0.0, 0.0, 0.0, 0.0, 0.0, 0.0, 0.0, 0.0, 0.0, 0.0, 0.0, 0.0, 0.0, 0.0, 0.0, 0.0, 0.0, 0.0, 0.0, 0.0, 0.0, 0.0, 0.0, 0.0, 0.0, 0.0, 0.0, 0.0, 0.0, 0.0, 0.0, 0.0]
---
header: 
  seq: 2381
  stamp: 
    secs: 2
    nsecs: 900000095
  frame_id: odom
child_frame_id: base_link
pose: 
  pose: 
    position: 
      x: -0.0813407658263
      y: -0.3915689273
      z: 0.0
    orientation: 
      x: 0.0
      y: 0.0
      z: -0.00673193340932
      w: 0.99997734028
  covariance: [0.0, 0.0, 0.0, 0.0, 0.0, 0.0, 0.0, 0.0, 0.0, 0.0, 0.0, 0.0, 0.0, 0.0, 0.0, 0.0, 0.0, 0.0, 0.0, 0.0, 0.0, 0.0, 0.0, 0.0, 0.0, 0.0, 0.0, 0.0, 0.0, 0.0, 0.0, 0.0, 0.0, 0.0, 0.0, 0.0]
twist: 
  twist: 
    linear: 
      x: 0.0
      y: 0.194778004366
      z: 0.0
    angular: 
      x: 0.0
      y: 0.0
      z: 0.0
  covariance: [0.0, 0.0, 0.0, 0.0, 0.0, 0.0, 0.0, 0.0, 0.0, 0.0, 0.0, 0.0, 0.0, 0.0, 0.0, 0.0, 0.0, 0.0, 0.0, 0.0, 0.0, 0.0, 0.0, 0.0, 0.0, 0.0, 0.0, 0.0, 0.0, 0.0, 0.0, 0.0, 0.0, 0.0, 0.0, 0.0]
---
header: 
  seq: 2382
  stamp: 
    secs: 2
    nsecs: 950000048
  frame_id: odom
child_frame_id: base_link
pose: 
  pose: 
    position: 
      x: -0.0810460248562
      y: -0.381676053529
      z: 0.0
    orientation: 
      x: 0.0
      y: 0.0
      z: -0.00695632762837
      w: 0.99997580446
  covariance: [0.0, 0.0, 0.0, 0.0, 0.0, 0.0, 0.0, 0.0, 0.0, 0.0, 0.0, 0.0, 0.0, 0.0, 0.0, 0.0, 0.0, 0.0, 0.0, 0.0, 0.0, 0.0, 0.0, 0.0, 0.0, 0.0, 0.0, 0.0, 0.0, 0.0, 0.0, 0.0, 0.0, 0.0, 0.0, 0.0]
twist: 
  twist: 
    linear: 
      x: 0.00314159560669
      y: 0.197920523221
      z: 0.0
    angular: 
      x: 0.0
      y: 0.0
      z: -0.00897598744768
  covariance: [0.0, 0.0, 0.0, 0.0, 0.0, 0.0, 0.0, 0.0, 0.0, 0.0, 0.0, 0.0, 0.0, 0.0, 0.0, 0.0, 0.0, 0.0, 0.0, 0.0, 0.0, 0.0, 0.0, 0.0, 0.0, 0.0, 0.0, 0.0, 0.0, 0.0, 0.0, 0.0, 0.0, 0.0, 0.0, 0.0]
---
header: 
  seq: 2383
  stamp: 
    secs: 3
    nsecs:         0
  frame_id: odom
child_frame_id: base_link
pose: 
  pose: 
    position: 
      x: -0.0810740843203
      y: -0.372092949564
      z: 0.0
    orientation: 
      x: 0.0
      y: 0.0
      z: -0.00673193340932
      w: 0.99997734028
  covariance: [0.0, 0.0, 0.0, 0.0, 0.0, 0.0, 0.0, 0.0, 0.0, 0.0, 0.0, 0.0, 0.0, 0.0, 0.0, 0.0, 0.0, 0.0, 0.0, 0.0, 0.0, 0.0, 0.0, 0.0, 0.0, 0.0, 0.0, 0.0, 0.0, 0.0, 0.0, 0.0, 0.0, 0.0, 0.0, 0.0]
twist: 
  twist: 
    linear: 
      x: -0.00314159566952
      y: 0.191637335841
      z: 0.0
    angular: 
      x: 0.0
      y: 0.0
      z: 0.0089759876272
  covariance: [0.0, 0.0, 0.0, 0.0, 0.0, 0.0, 0.0, 0.0, 0.0, 0.0, 0.0, 0.0, 0.0, 0.0, 0.0, 0.0, 0.0, 0.0, 0.0, 0.0, 0.0, 0.0, 0.0, 0.0, 0.0, 0.0, 0.0, 0.0, 0.0, 0.0, 0.0, 0.0, 0.0, 0.0, 0.0, 0.0]
---
header: 
  seq: 2384
  stamp: 
    secs: 3
    nsecs:  49999952
  frame_id: odom
child_frame_id: base_link
pose: 
  pose: 
    position: 
      x: -0.0809429635378
      y: -0.362354895054
      z: 0.0
    orientation: 
      x: 0.0
      y: 0.0
      z: -0.00673193340932
      w: 0.99997734028
  covariance: [0.0, 0.0, 0.0, 0.0, 0.0, 0.0, 0.0, 0.0, 0.0, 0.0, 0.0, 0.0, 0.0, 0.0, 0.0, 0.0, 0.0, 0.0, 0.0, 0.0, 0.0, 0.0, 0.0, 0.0, 0.0, 0.0, 0.0, 0.0, 0.0, 0.0, 0.0, 0.0, 0.0, 0.0, 0.0, 0.0]
twist: 
  twist: 
    linear: 
      x: 0.0
      y: 0.19477893151
      z: 0.0
    angular: 
      x: 0.0
      y: 0.0
      z: 1.58603289232e-17
  covariance: [0.0, 0.0, 0.0, 0.0, 0.0, 0.0, 0.0, 0.0, 0.0, 0.0, 0.0, 0.0, 0.0, 0.0, 0.0, 0.0, 0.0, 0.0, 0.0, 0.0, 0.0, 0.0, 0.0, 0.0, 0.0, 0.0, 0.0, 0.0, 0.0, 0.0, 0.0, 0.0, 0.0, 0.0, 0.0, 0.0]
---
header: 
  seq: 2385
  stamp: 
    secs: 3
    nsecs:  99999905
  frame_id: odom
child_frame_id: base_link
pose: 
  pose: 
    position: 
      x: -0.0809623514284
      y: -0.352457650599
      z: 0.0
    orientation: 
      x: 0.0
      y: 0.0
      z: -0.00695632762837
      w: 0.99997580446
  covariance: [0.0, 0.0, 0.0, 0.0, 0.0, 0.0, 0.0, 0.0, 0.0, 0.0, 0.0, 0.0, 0.0, 0.0, 0.0, 0.0, 0.0, 0.0, 0.0, 0.0, 0.0, 0.0, 0.0, 0.0, 0.0, 0.0, 0.0, 0.0, 0.0, 0.0, 0.0, 0.0, 0.0, 0.0, 0.0, 0.0]
twist: 
  twist: 
    linear: 
      x: -0.00314159560669
      y: 0.197920523221
      z: 0.0
    angular: 
      x: 0.0
      y: 0.0
      z: -0.00897598744768
  covariance: [0.0, 0.0, 0.0, 0.0, 0.0, 0.0, 0.0, 0.0, 0.0, 0.0, 0.0, 0.0, 0.0, 0.0, 0.0, 0.0, 0.0, 0.0, 0.0, 0.0, 0.0, 0.0, 0.0, 0.0, 0.0, 0.0, 0.0, 0.0, 0.0, 0.0, 0.0, 0.0, 0.0, 0.0, 0.0, 0.0]
---
header: 
  seq: 2386
  stamp: 
    secs: 3
    nsecs: 150000095
  frame_id: odom
child_frame_id: base_link
pose: 
  pose: 
    position: 
      x: -0.0805127313699
      y: -0.342724026601
      z: 0.0
    orientation: 
      x: 0.0
      y: 0.0
      z: -0.00695632762837
      w: 0.99997580446
  covariance: [0.0, 0.0, 0.0, 0.0, 0.0, 0.0, 0.0, 0.0, 0.0, 0.0, 0.0, 0.0, 0.0, 0.0, 0.0, 0.0, 0.0, 0.0, 0.0, 0.0, 0.0, 0.0, 0.0, 0.0, 0.0, 0.0, 0.0, 0.0, 0.0, 0.0, 0.0, 0.0, 0.0, 0.0, 0.0, 0.0]
twist: 
  twist: 
    linear: 
      x: 0.00628316143117
      y: 0.194778004366
      z: 0.0
    angular: 
      x: 0.0
      y: 0.0
      z: 0.0
  covariance: [0.0, 0.0, 0.0, 0.0, 0.0, 0.0, 0.0, 0.0, 0.0, 0.0, 0.0, 0.0, 0.0, 0.0, 0.0, 0.0, 0.0, 0.0, 0.0, 0.0, 0.0, 0.0, 0.0, 0.0, 0.0, 0.0, 0.0, 0.0, 0.0, 0.0, 0.0, 0.0, 0.0, 0.0, 0.0, 0.0]
---
header: 
  seq: 2387
  stamp: 
    secs: 3
    nsecs: 200000048
  frame_id: odom
child_frame_id: base_link
pose: 
  pose: 
    position: 
      x: -0.0806913690327
      y: -0.332981661235
      z: 0.0
    orientation: 
      x: 0.0
      y: 0.0
      z: -0.00695632762837
      w: 0.99997580446
  covariance: [0.0, 0.0, 0.0, 0.0, 0.0, 0.0, 0.0, 0.0, 0.0, 0.0, 0.0, 0.0, 0.0, 0.0, 0.0, 0.0, 0.0, 0.0, 0.0, 0.0, 0.0, 0.0, 0.0, 0.0, 0.0, 0.0, 0.0, 0.0, 0.0, 0.0, 0.0, 0.0, 0.0, 0.0, 0.0, 0.0]
twist: 
  twist: 
    linear: 
      x: -0.00628319121338
      y: 0.194778927615
      z: 0.0
    angular: 
      x: 0.0
      y: 0.0
      z: 0.0
  covariance: [0.0, 0.0, 0.0, 0.0, 0.0, 0.0, 0.0, 0.0, 0.0, 0.0, 0.0, 0.0, 0.0, 0.0, 0.0, 0.0, 0.0, 0.0, 0.0, 0.0, 0.0, 0.0, 0.0, 0.0, 0.0, 0.0, 0.0, 0.0, 0.0, 0.0, 0.0, 0.0, 0.0, 0.0, 0.0, 0.0]
---
header: 
  seq: 2388
  stamp: 
    secs: 3
    nsecs: 250000000
  frame_id: odom
child_frame_id: base_link
pose: 
  pose: 
    position: 
      x: -0.0805558778349
      y: -0.323243666553
      z: 0.0
    orientation: 
      x: 0.0
      y: 0.0
      z: -0.00695632762837
      w: 0.99997580446
  covariance: [0.0, 0.0, 0.0, 0.0, 0.0, 0.0, 0.0, 0.0, 0.0, 0.0, 0.0, 0.0, 0.0, 0.0, 0.0, 0.0, 0.0, 0.0, 0.0, 0.0, 0.0, 0.0, 0.0, 0.0, 0.0, 0.0, 0.0, 0.0, 0.0, 0.0, 0.0, 0.0, 0.0, 0.0, 0.0, 0.0]
twist: 
  twist: 
    linear: 
      x: 0.0
      y: 0.19477893151
      z: 0.0
    angular: 
      x: 0.0
      y: 0.0
      z: 1.58603289232e-17
  covariance: [0.0, 0.0, 0.0, 0.0, 0.0, 0.0, 0.0, 0.0, 0.0, 0.0, 0.0, 0.0, 0.0, 0.0, 0.0, 0.0, 0.0, 0.0, 0.0, 0.0, 0.0, 0.0, 0.0, 0.0, 0.0, 0.0, 0.0, 0.0, 0.0, 0.0, 0.0, 0.0, 0.0, 0.0, 0.0, 0.0]
---
header: 
  seq: 2389
  stamp: 
    secs: 3
    nsecs: 299999952
  frame_id: odom
child_frame_id: base_link
pose: 
  pose: 
    position: 
      x: -0.0804203866371
      y: -0.313505671871
      z: 0.0
    orientation: 
      x: 0.0
      y: 0.0
      z: -0.00695632762837
      w: 0.99997580446
  covariance: [0.0, 0.0, 0.0, 0.0, 0.0, 0.0, 0.0, 0.0, 0.0, 0.0, 0.0, 0.0, 0.0, 0.0, 0.0, 0.0, 0.0, 0.0, 0.0, 0.0, 0.0, 0.0, 0.0, 0.0, 0.0, 0.0, 0.0, 0.0, 0.0, 0.0, 0.0, 0.0, 0.0, 0.0, 0.0, 0.0]
twist: 
  twist: 
    linear: 
      x: 0.0
      y: 0.19477893151
      z: 0.0
    angular: 
      x: 0.0
      y: 0.0
      z: 1.58603289232e-17
  covariance: [0.0, 0.0, 0.0, 0.0, 0.0, 0.0, 0.0, 0.0, 0.0, 0.0, 0.0, 0.0, 0.0, 0.0, 0.0, 0.0, 0.0, 0.0, 0.0, 0.0, 0.0, 0.0, 0.0, 0.0, 0.0, 0.0, 0.0, 0.0, 0.0, 0.0, 0.0, 0.0, 0.0, 0.0, 0.0, 0.0]
---
header: 
  seq: 2390
  stamp: 
    secs: 3
    nsecs: 349999905
  frame_id: odom
child_frame_id: base_link
pose: 
  pose: 
    position: 
      x: -0.080439844317
      y: -0.303922546579
      z: 0.0
    orientation: 
      x: 0.0
      y: 0.0
      z: -0.00718072149714
      w: 0.999974218287
  covariance: [0.0, 0.0, 0.0, 0.0, 0.0, 0.0, 0.0, 0.0, 0.0, 0.0, 0.0, 0.0, 0.0, 0.0, 0.0, 0.0, 0.0, 0.0, 0.0, 0.0, 0.0, 0.0, 0.0, 0.0, 0.0, 0.0, 0.0, 0.0, 0.0, 0.0, 0.0, 0.0, 0.0, 0.0, 0.0, 0.0]
twist: 
  twist: 
    linear: 
      x: -0.00314159560669
      y: 0.191637332008
      z: 0.0
    angular: 
      x: 0.0
      y: 0.0
      z: -0.00897598744768
  covariance: [0.0, 0.0, 0.0, 0.0, 0.0, 0.0, 0.0, 0.0, 0.0, 0.0, 0.0, 0.0, 0.0, 0.0, 0.0, 0.0, 0.0, 0.0, 0.0, 0.0, 0.0, 0.0, 0.0, 0.0, 0.0, 0.0, 0.0, 0.0, 0.0, 0.0, 0.0, 0.0, 0.0, 0.0, 0.0, 0.0]
---
header: 
  seq: 2391
  stamp: 
    secs: 3
    nsecs: 400000095
  frame_id: odom
child_frame_id: base_link
pose: 
  pose: 
    position: 
      x: -0.0801451033469
      y: -0.294029672809
      z: 0.0
    orientation: 
      x: 0.0
      y: 0.0
      z: -0.00695632762837
      w: 0.99997580446
  covariance: [0.0, 0.0, 0.0, 0.0, 0.0, 0.0, 0.0, 0.0, 0.0, 0.0, 0.0, 0.0, 0.0, 0.0, 0.0, 0.0, 0.0, 0.0, 0.0, 0.0, 0.0, 0.0, 0.0, 0.0, 0.0, 0.0, 0.0, 0.0, 0.0, 0.0, 0.0, 0.0, 0.0, 0.0, 0.0, 0.0]
twist: 
  twist: 
    linear: 
      x: 0.00314158071558
      y: 0.197919585082
      z: 0.0
    angular: 
      x: 0.0
      y: 0.0
      z: 0.00897594490167
  covariance: [0.0, 0.0, 0.0, 0.0, 0.0, 0.0, 0.0, 0.0, 0.0, 0.0, 0.0, 0.0, 0.0, 0.0, 0.0, 0.0, 0.0, 0.0, 0.0, 0.0, 0.0, 0.0, 0.0, 0.0, 0.0, 0.0, 0.0, 0.0, 0.0, 0.0, 0.0, 0.0, 0.0, 0.0, 0.0, 0.0]
---
header: 
  seq: 2392
  stamp: 
    secs: 3
    nsecs: 450000048
  frame_id: odom
child_frame_id: base_link
pose: 
  pose: 
    position: 
      x: -0.0801600493628
      y: -0.28413242065
      z: 0.0
    orientation: 
      x: 0.0
      y: 0.0
      z: -0.00718072149714
      w: 0.999974218287
  covariance: [0.0, 0.0, 0.0, 0.0, 0.0, 0.0, 0.0, 0.0, 0.0, 0.0, 0.0, 0.0, 0.0, 0.0, 0.0, 0.0, 0.0, 0.0, 0.0, 0.0, 0.0, 0.0, 0.0, 0.0, 0.0, 0.0, 0.0, 0.0, 0.0, 0.0, 0.0, 0.0, 0.0, 0.0, 0.0, 0.0]
twist: 
  twist: 
    linear: 
      x: -0.00314159560669
      y: 0.197920523221
      z: 0.0
    angular: 
      x: 0.0
      y: 0.0
      z: -0.00897598744768
  covariance: [0.0, 0.0, 0.0, 0.0, 0.0, 0.0, 0.0, 0.0, 0.0, 0.0, 0.0, 0.0, 0.0, 0.0, 0.0, 0.0, 0.0, 0.0, 0.0, 0.0, 0.0, 0.0, 0.0, 0.0, 0.0, 0.0, 0.0, 0.0, 0.0, 0.0, 0.0, 0.0, 0.0, 0.0, 0.0, 0.0]
---
header: 
  seq: 2393
  stamp: 
    secs: 3
    nsecs: 500000000
  frame_id: odom
child_frame_id: base_link
pose: 
  pose: 
    position: 
      x: -0.080020187777
      y: -0.274394487757
      z: 0.0
    orientation: 
      x: 0.0
      y: 0.0
      z: -0.00718072149714
      w: 0.999974218287
  covariance: [0.0, 0.0, 0.0, 0.0, 0.0, 0.0, 0.0, 0.0, 0.0, 0.0, 0.0, 0.0, 0.0, 0.0, 0.0, 0.0, 0.0, 0.0, 0.0, 0.0, 0.0, 0.0, 0.0, 0.0, 0.0, 0.0, 0.0, 0.0, 0.0, 0.0, 0.0, 0.0, 0.0, 0.0, 0.0, 0.0]
twist: 
  twist: 
    linear: 
      x: 0.0
      y: 0.19477893151
      z: 0.0
    angular: 
      x: 0.0
      y: 0.0
      z: 1.58603289232e-17
  covariance: [0.0, 0.0, 0.0, 0.0, 0.0, 0.0, 0.0, 0.0, 0.0, 0.0, 0.0, 0.0, 0.0, 0.0, 0.0, 0.0, 0.0, 0.0, 0.0, 0.0, 0.0, 0.0, 0.0, 0.0, 0.0, 0.0, 0.0, 0.0, 0.0, 0.0, 0.0, 0.0, 0.0, 0.0, 0.0, 0.0]
---
header: 
  seq: 2394
  stamp: 
    secs: 3
    nsecs: 549999952
  frame_id: odom
child_frame_id: base_link
pose: 
  pose: 
    position: 
      x: -0.0798848378552
      y: -0.264970681731
      z: 0.0
    orientation: 
      x: 0.0
      y: 0.0
      z: -0.00718072149714
      w: 0.999974218287
  covariance: [0.0, 0.0, 0.0, 0.0, 0.0, 0.0, 0.0, 0.0, 0.0, 0.0, 0.0, 0.0, 0.0, 0.0, 0.0, 0.0, 0.0, 0.0, 0.0, 0.0, 0.0, 0.0, 0.0, 0.0, 0.0, 0.0, 0.0, 0.0, 0.0, 0.0, 0.0, 0.0, 0.0, 0.0, 0.0, 0.0]
twist: 
  twist: 
    linear: 
      x: 0.0
      y: 0.188495740171
      z: 0.0
    angular: 
      x: 0.0
      y: 0.0
      z: 0.0
  covariance: [0.0, 0.0, 0.0, 0.0, 0.0, 0.0, 0.0, 0.0, 0.0, 0.0, 0.0, 0.0, 0.0, 0.0, 0.0, 0.0, 0.0, 0.0, 0.0, 0.0, 0.0, 0.0, 0.0, 0.0, 0.0, 0.0, 0.0, 0.0, 0.0, 0.0, 0.0, 0.0, 0.0, 0.0, 0.0, 0.0]
---
header: 
  seq: 2395
  stamp: 
    secs: 3
    nsecs: 599999905
  frame_id: odom
child_frame_id: base_link
pose: 
  pose: 
    position: 
      x: -0.0798953419934
      y: -0.255073423861
      z: 0.0
    orientation: 
      x: 0.0
      y: 0.0
      z: -0.00740511500431
      w: 0.99997258176
  covariance: [0.0, 0.0, 0.0, 0.0, 0.0, 0.0, 0.0, 0.0, 0.0, 0.0, 0.0, 0.0, 0.0, 0.0, 0.0, 0.0, 0.0, 0.0, 0.0, 0.0, 0.0, 0.0, 0.0, 0.0, 0.0, 0.0, 0.0, 0.0, 0.0, 0.0, 0.0, 0.0, 0.0, 0.0, 0.0, 0.0]
twist: 
  twist: 
    linear: 
      x: -0.00314159560669
      y: 0.197920523221
      z: 0.0
    angular: 
      x: 0.0
      y: 0.0
      z: -0.00897598744768
  covariance: [0.0, 0.0, 0.0, 0.0, 0.0, 0.0, 0.0, 0.0, 0.0, 0.0, 0.0, 0.0, 0.0, 0.0, 0.0, 0.0, 0.0, 0.0, 0.0, 0.0, 0.0, 0.0, 0.0, 0.0, 0.0, 0.0, 0.0, 0.0, 0.0, 0.0, 0.0, 0.0, 0.0, 0.0, 0.0, 0.0]
---
header: 
  seq: 2396
  stamp: 
    secs: 3
    nsecs: 650000095
  frame_id: odom
child_frame_id: base_link
pose: 
  pose: 
    position: 
