header: 
  seq: 2497
  stamp: 
    secs: 0
    nsecs: 100000001
  frame_id: odom
child_frame_id: base_link
pose: 
  pose: 
    position: 
      x: -0.0596411028327
      y: -0.845178745955
      z: 0.0
    orientation: 
      x: 0.0
      y: 0.0
      z: 0.000673198374921
      w: 0.999999773402
  covariance: [0.0, 0.0, 0.0, 0.0, 0.0, 0.0, 0.0, 0.0, 0.0, 0.0, 0.0, 0.0, 0.0, 0.0, 0.0, 0.0, 0.0, 0.0, 0.0, 0.0, 0.0, 0.0, 0.0, 0.0, 0.0, 0.0, 0.0, 0.0, 0.0, 0.0, 0.0, 0.0, 0.0, 0.0, 0.0, 0.0]
twist: 
  twist: 
    linear: 
      x: -0.000330693978311
      y: 0.182800282455
      z: 0.0
    angular: 
      x: 0.0
      y: 0.0
      z: -0.00272953759875
  covariance: [0.0, 0.0, 0.0, 0.0, 0.0, 0.0, 0.0, 0.0, 0.0, 0.0, 0.0, 0.0, 0.0, 0.0, 0.0, 0.0, 0.0, 0.0, 0.0, 0.0, 0.0, 0.0, 0.0, 0.0, 0.0, 0.0, 0.0, 0.0, 0.0, 0.0, 0.0, 0.0, 0.0, 0.0, 0.0, 0.0]
---
header: 
  seq: 2498
  stamp: 
    secs: 0
    nsecs: 150000006
  frame_id: odom
child_frame_id: base_link
pose: 
  pose: 
    position: 
      x: -0.0597964814539
      y: -0.845337508375
      z: 0.0
    orientation: 
      x: 0.0
      y: 0.0
      z: 0.00538556137177
      w: 0.999985497759
  covariance: [0.0, 0.0, 0.0, 0.0, 0.0, 0.0, 0.0, 0.0, 0.0, 0.0, 0.0, 0.0, 0.0, 0.0, 0.0, 0.0, 0.0, 0.0, 0.0, 0.0, 0.0, 0.0, 0.0, 0.0, 0.0, 0.0, 0.0, 0.0, 0.0, 0.0, 0.0, 0.0, 0.0, 0.0, 0.0, 0.0]
twist: 
  twist: 
    linear: 
      x: -0.00314159233943
      y: -0.00314159233943
      z: 0.0
    angular: 
      x: 0.0
      y: 0.0
      z: 0.188495540366
  covariance: [0.0, 0.0, 0.0, 0.0, 0.0, 0.0, 0.0, 0.0, 0.0, 0.0, 0.0, 0.0, 0.0, 0.0, 0.0, 0.0, 0.0, 0.0, 0.0, 0.0, 0.0, 0.0, 0.0, 0.0, 0.0, 0.0, 0.0, 0.0, 0.0, 0.0, 0.0, 0.0, 0.0, 0.0, 0.0, 0.0]
---
header: 
  seq: 2499
  stamp: 
    secs: 0
    nsecs: 200000003
  frame_id: odom
child_frame_id: base_link
pose: 
  pose: 
    position: 
      x: -0.0596427498868
      y: -0.845177150565
      z: 0.0
    orientation: 
      x: 0.0
      y: 0.0
      z: 0.0105465798106
      w: 0.999944383281
  covariance: [0.0, 0.0, 0.0, 0.0, 0.0, 0.0, 0.0, 0.0, 0.0, 0.0, 0.0, 0.0, 0.0, 0.0, 0.0, 0.0, 0.0, 0.0, 0.0, 0.0, 0.0, 0.0, 0.0, 0.0, 0.0, 0.0, 0.0, 0.0, 0.0, 0.0, 0.0, 0.0, 0.0, 0.0, 0.0, 0.0]
twist: 
  twist: 
    linear: 
      x: 0.00314159284209
      y: 0.00314159284209
      z: 0.0
    angular: 
      x: 0.0
      y: 0.0
      z: 0.206447529623
  covariance: [0.0, 0.0, 0.0, 0.0, 0.0, 0.0, 0.0, 0.0, 0.0, 0.0, 0.0, 0.0, 0.0, 0.0, 0.0, 0.0, 0.0, 0.0, 0.0, 0.0, 0.0, 0.0, 0.0, 0.0, 0.0, 0.0, 0.0, 0.0, 0.0, 0.0, 0.0, 0.0, 0.0, 0.0, 0.0, 0.0]
---
header: 
  seq: 2500
  stamp: 
    secs: 0
    nsecs: 250000000
  frame_id: odom
child_frame_id: base_link
pose: 
  pose: 
    position: 
      x: -0.0597948180197
      y: -0.845339086679
      z: 0.0
    orientation: 
      x: 0.0
      y: 0.0
      z: 0.0157073173118
      w: 0.999876632482
  covariance: [0.0, 0.0, 0.0, 0.0, 0.0, 0.0, 0.0, 0.0, 0.0, 0.0, 0.0, 0.0, 0.0, 0.0, 0.0, 0.0, 0.0, 0.0, 0.0, 0.0, 0.0, 0.0, 0.0, 0.0, 0.0, 0.0, 0.0, 0.0, 0.0, 0.0, 0.0, 0.0, 0.0, 0.0, 0.0, 0.0]
twist: 
  twist: 
    linear: 
      x: -0.00314159284209
      y: -0.00314159284209
      z: 0.0
    angular: 
      x: 0.0
      y: 0.0
      z: 0.206447529623
  covariance: [0.0, 0.0, 0.0, 0.0, 0.0, 0.0, 0.0, 0.0, 0.0, 0.0, 0.0, 0.0, 0.0, 0.0, 0.0, 0.0, 0.0, 0.0, 0.0, 0.0, 0.0, 0.0, 0.0, 0.0, 0.0, 0.0, 0.0, 0.0, 0.0, 0.0, 0.0, 0.0, 0.0, 0.0, 0.0, 0.0]
---
header: 
  seq: 2501
  stamp: 
    secs: 0
    nsecs: 300000012
  frame_id: odom
child_frame_id: base_link
pose: 
  pose: 
    position: 
      x: -0.0597948180197
      y: -0.845339086679
      z: 0.0
    orientation: 
      x: 0.0
      y: 0.0
      z: 0.0206432852694
      w: 0.999786904682
  covariance: [0.0, 0.0, 0.0, 0.0, 0.0, 0.0, 0.0, 0.0, 0.0, 0.0, 0.0, 0.0, 0.0, 0.0, 0.0, 0.0, 0.0, 0.0, 0.0, 0.0, 0.0, 0.0, 0.0, 0.0, 0.0, 0.0, 0.0, 0.0, 0.0, 0.0, 0.0, 0.0, 0.0, 0.0, 0.0, 0.0]
twist: 
  twist: 
    linear: 
      x: 0.0
      y: -2.77555756156e-18
      z: 0.0
    angular: 
      x: 0.0
      y: 0.0
      z: 0.197471490832
  covariance: [0.0, 0.0, 0.0, 0.0, 0.0, 0.0, 0.0, 0.0, 0.0, 0.0, 0.0, 0.0, 0.0, 0.0, 0.0, 0.0, 0.0, 0.0, 0.0, 0.0, 0.0, 0.0, 0.0, 0.0, 0.0, 0.0, 0.0, 0.0, 0.0, 0.0, 0.0, 0.0, 0.0, 0.0, 0.0, 0.0]
---
header: 
  seq: 2502
  stamp: 
    secs: 0
    nsecs: 349999994
  frame_id: odom
child_frame_id: base_link
pose: 
  pose: 
    position: 
      x: -0.05964605113
      y: -0.845174112637
      z: 0.0
    orientation: 
      x: 0.0
      y: 0.0
      z: 0.0258030755206
      w: 0.999667045217
  covariance: [0.0, 0.0, 0.0, 0.0, 0.0, 0.0, 0.0, 0.0, 0.0, 0.0, 0.0, 0.0, 0.0, 0.0, 0.0, 0.0, 0.0, 0.0, 0.0, 0.0, 0.0, 0.0, 0.0, 0.0, 0.0, 0.0, 0.0, 0.0, 0.0, 0.0, 0.0, 0.0, 0.0, 0.0, 0.0, 0.0]
twist: 
  twist: 
    linear: 
      x: 0.00314159378456
      y: 0.00314159378456
      z: 0.0
    angular: 
      x: 0.0
      y: 0.0
      z: 0.206447591557
  covariance: [0.0, 0.0, 0.0, 0.0, 0.0, 0.0, 0.0, 0.0, 0.0, 0.0, 0.0, 0.0, 0.0, 0.0, 0.0, 0.0, 0.0, 0.0, 0.0, 0.0, 0.0, 0.0, 0.0, 0.0, 0.0, 0.0, 0.0, 0.0, 0.0, 0.0, 0.0, 0.0, 0.0, 0.0, 0.0, 0.0]
---
header: 
  seq: 2503
  stamp: 
    secs: 0
    nsecs: 400000006
  frame_id: odom
child_frame_id: base_link
pose: 
  pose: 
    position: 
      x: -0.0597932565918
      y: -0.845340481426
      z: 0.0
    orientation: 
      x: 0.0
      y: 0.0
      z: 0.0305135915544
      w: 0.999534351951
  covariance: [0.0, 0.0, 0.0, 0.0, 0.0, 0.0, 0.0, 0.0, 0.0, 0.0, 0.0, 0.0, 0.0, 0.0, 0.0, 0.0, 0.0, 0.0, 0.0, 0.0, 0.0, 0.0, 0.0, 0.0, 0.0, 0.0, 0.0, 0.0, 0.0, 0.0, 0.0, 0.0, 0.0, 0.0, 0.0, 0.0]
twist: 
  twist: 
    linear: 
      x: -0.00314159189961
      y: -0.00314159189961
      z: 0.0
    angular: 
      x: 0.0
      y: 0.0
      z: 0.188495513976
  covariance: [0.0, 0.0, 0.0, 0.0, 0.0, 0.0, 0.0, 0.0, 0.0, 0.0, 0.0, 0.0, 0.0, 0.0, 0.0, 0.0, 0.0, 0.0, 0.0, 0.0, 0.0, 0.0, 0.0, 0.0, 0.0, 0.0, 0.0, 0.0, 0.0, 0.0, 0.0, 0.0, 0.0, 0.0, 0.0, 0.0]
---
header: 
  seq: 2504
  stamp: 
    secs: 0
    nsecs: 449999988
  frame_id: odom
child_frame_id: base_link
pose: 
  pose: 
    position: 
      x: -0.0596477762631
      y: -0.845172602017
      z: 0.0
    orientation: 
      x: 0.0
      y: 0.0
      z: 0.0356719468776
      w: 0.999363553571
  covariance: [0.0, 0.0, 0.0, 0.0, 0.0, 0.0, 0.0, 0.0, 0.0, 0.0, 0.0, 0.0, 0.0, 0.0, 0.0, 0.0, 0.0, 0.0, 0.0, 0.0, 0.0, 0.0, 0.0, 0.0, 0.0, 0.0, 0.0, 0.0, 0.0, 0.0, 0.0, 0.0, 0.0, 0.0, 0.0, 0.0]
twist: 
  twist: 
    linear: 
      x: 0.00314159378456
      y: 0.00314159378456
      z: 0.0
    angular: 
      x: 0.0
      y: 0.0
      z: 0.206447591557
  covariance: [0.0, 0.0, 0.0, 0.0, 0.0, 0.0, 0.0, 0.0, 0.0, 0.0, 0.0, 0.0, 0.0, 0.0, 0.0, 0.0, 0.0, 0.0, 0.0, 0.0, 0.0, 0.0, 0.0, 0.0, 0.0, 0.0, 0.0, 0.0, 0.0, 0.0, 0.0, 0.0, 0.0, 0.0, 0.0, 0.0]
---
header: 
  seq: 2505
  stamp: 
    secs: 0
    nsecs: 500000000
  frame_id: odom
child_frame_id: base_link
pose: 
  pose: 
    position: 
      x: -0.0599608995712
      y: -0.845198093937
      z: 0.0
    orientation: 
      x: 0.0
      y: 0.0
      z: 0.0406051385962
      w: 0.999175271271
  covariance: [0.0, 0.0, 0.0, 0.0, 0.0, 0.0, 0.0, 0.0, 0.0, 0.0, 0.0, 0.0, 0.0, 0.0, 0.0, 0.0, 0.0, 0.0, 0.0, 0.0, 0.0, 0.0, 0.0, 0.0, 0.0, 0.0, 0.0, 0.0, 0.0, 0.0, 0.0, 0.0, 0.0, 0.0, 0.0, 0.0]
twist: 
  twist: 
    linear: 
      x: -0.00628318379922
      y: -2.77555756156e-18
      z: 0.0
    angular: 
      x: 0.0
      y: 0.0
      z: 0.197471490832
  covariance: [0.0, 0.0, 0.0, 0.0, 0.0, 0.0, 0.0, 0.0, 0.0, 0.0, 0.0, 0.0, 0.0, 0.0, 0.0, 0.0, 0.0, 0.0, 0.0, 0.0, 0.0, 0.0, 0.0, 0.0, 0.0, 0.0, 0.0, 0.0, 0.0, 0.0, 0.0, 0.0, 0.0, 0.0, 0.0, 0.0]
---
header: 
  seq: 2506
  stamp: 
    secs: 0
    nsecs: 550000012
  frame_id: odom
child_frame_id: base_link
pose: 
  pose: 
    position: 
      x: -0.0596480432181
      y: -0.845169511663
      z: 0.0
    orientation: 
      x: 0.0
      y: 0.0
      z: 0.0455373406932
      w: 0.998962637241
  covariance: [0.0, 0.0, 0.0, 0.0, 0.0, 0.0, 0.0, 0.0, 0.0, 0.0, 0.0, 0.0, 0.0, 0.0, 0.0, 0.0, 0.0, 0.0, 0.0, 0.0, 0.0, 0.0, 0.0, 0.0, 0.0, 0.0, 0.0, 0.0, 0.0, 0.0, 0.0, 0.0, 0.0, 0.0, 0.0, 0.0]
twist: 
  twist: 
    linear: 
      x: 0.00628318379922
      y: -2.77555756156e-18
      z: 0.0
    angular: 
      x: 0.0
      y: 0.0
      z: 0.197471490832
  covariance: [0.0, 0.0, 0.0, 0.0, 0.0, 0.0, 0.0, 0.0, 0.0, 0.0, 0.0, 0.0, 0.0, 0.0, 0.0, 0.0, 0.0, 0.0, 0.0, 0.0, 0.0, 0.0, 0.0, 0.0, 0.0, 0.0, 0.0, 0.0, 0.0, 0.0, 0.0, 0.0, 0.0, 0.0, 0.0, 0.0]
---
header: 
  seq: 2507
  stamp: 
    secs: 0
    nsecs: 600000024
  frame_id: odom
child_frame_id: base_link
pose: 
  pose: 
    position: 
      x: -0.0597884104876
      y: -0.845341689047
      z: 0.0
    orientation: 
      x: 0.0
      y: 0.0
      z: 0.0506925452026
      w: 0.998714306426
  covariance: [0.0, 0.0, 0.0, 0.0, 0.0, 0.0, 0.0, 0.0, 0.0, 0.0, 0.0, 0.0, 0.0, 0.0, 0.0, 0.0, 0.0, 0.0, 0.0, 0.0, 0.0, 0.0, 0.0, 0.0, 0.0, 0.0, 0.0, 0.0, 0.0, 0.0, 0.0, 0.0, 0.0, 0.0, 0.0, 0.0]
twist: 
  twist: 
    linear: 
      x: -0.00314159189961
      y: -0.00314159189961
      z: 0.0
    angular: 
      x: 0.0
      y: 0.0
      z: 0.206447467689
  covariance: [0.0, 0.0, 0.0, 0.0, 0.0, 0.0, 0.0, 0.0, 0.0, 0.0, 0.0, 0.0, 0.0, 0.0, 0.0, 0.0, 0.0, 0.0, 0.0, 0.0, 0.0, 0.0, 0.0, 0.0, 0.0, 0.0, 0.0, 0.0, 0.0, 0.0, 0.0, 0.0, 0.0, 0.0, 0.0, 0.0]
---
header: 
  seq: 2508
  stamp: 
    secs: 0
    nsecs: 649999976
  frame_id: odom
child_frame_id: base_link
pose: 
  pose: 
    position: 
      x: -0.0599620275971
      y: -0.845203106504
      z: 0.0
    orientation: 
      x: 0.0
      y: 0.0
      z: 0.055846399374
      w: 0.998439372059
  covariance: [0.0, 0.0, 0.0, 0.0, 0.0, 0.0, 0.0, 0.0, 0.0, 0.0, 0.0, 0.0, 0.0, 0.0, 0.0, 0.0, 0.0, 0.0, 0.0, 0.0, 0.0, 0.0, 0.0, 0.0, 0.0, 0.0, 0.0, 0.0, 0.0, 0.0, 0.0, 0.0, 0.0, 0.0, 0.0, 0.0]
twist: 
  twist: 
    linear: 
      x: -0.00314159566952
      y: 0.00314159566952
      z: 0.0
    angular: 
      x: 0.0
      y: 0.0
      z: 0.206447715426
  covariance: [0.0, 0.0, 0.0, 0.0, 0.0, 0.0, 0.0, 0.0, 0.0, 0.0, 0.0, 0.0, 0.0, 0.0, 0.0, 0.0, 0.0, 0.0, 0.0, 0.0, 0.0, 0.0, 0.0, 0.0, 0.0, 0.0, 0.0, 0.0, 0.0, 0.0, 0.0, 0.0, 0.0, 0.0, 0.0, 0.0]
---
header: 
  seq: 2509
  stamp: 
    secs: 0
    nsecs: 699999988
  frame_id: odom
child_frame_id: base_link
pose: 
  pose: 
    position: 
      x: -0.0596501890729
      y: -0.845164991168
      z: 0.0
    orientation: 
      x: 0.0
      y: 0.0
      z: 0.0607747827783
      w: 0.998151504421
  covariance: [0.0, 0.0, 0.0, 0.0, 0.0, 0.0, 0.0, 0.0, 0.0, 0.0, 0.0, 0.0, 0.0, 0.0, 0.0, 0.0, 0.0, 0.0, 0.0, 0.0, 0.0, 0.0, 0.0, 0.0, 0.0, 0.0, 0.0, 0.0, 0.0, 0.0, 0.0, 0.0, 0.0, 0.0, 0.0, 0.0]
twist: 
  twist: 
    linear: 
      x: 0.00628318379922
      y: -2.77555756156e-18
      z: 0.0
    angular: 
      x: 0.0
      y: 0.0
      z: 0.197471490832
  covariance: [0.0, 0.0, 0.0, 0.0, 0.0, 0.0, 0.0, 0.0, 0.0, 0.0, 0.0, 0.0, 0.0, 0.0, 0.0, 0.0, 0.0, 0.0, 0.0, 0.0, 0.0, 0.0, 0.0, 0.0, 0.0, 0.0, 0.0, 0.0, 0.0, 0.0, 0.0, 0.0, 0.0, 0.0, 0.0, 0.0]
---
header: 
  seq: 2510
  stamp: 
    secs: 0
    nsecs: 750000000
  frame_id: odom
child_frame_id: base_link
pose: 
  pose: 
    position: 
      x: -0.0599616360685
      y: -0.845206183558
      z: 0.0
    orientation: 
      x: 0.0
      y: 0.0
      z: 0.0657016849899
      w: 0.997839310004
  covariance: [0.0, 0.0, 0.0, 0.0, 0.0, 0.0, 0.0, 0.0, 0.0, 0.0, 0.0, 0.0, 0.0, 0.0, 0.0, 0.0, 0.0, 0.0, 0.0, 0.0, 0.0, 0.0, 0.0, 0.0, 0.0, 0.0, 0.0, 0.0, 0.0, 0.0, 0.0, 0.0, 0.0, 0.0, 0.0, 0.0]
twist: 
  twist: 
    linear: 
      x: -0.00628318379922
      y: -2.77555756156e-18
      z: 0.0
    angular: 
      x: 0.0
      y: 0.0
      z: 0.197471490832
  covariance: [0.0, 0.0, 0.0, 0.0, 0.0, 0.0, 0.0, 0.0, 0.0, 0.0, 0.0, 0.0, 0.0, 0.0, 0.0, 0.0, 0.0, 0.0, 0.0, 0.0, 0.0, 0.0, 0.0, 0.0, 0.0, 0.0, 0.0, 0.0, 0.0, 0.0, 0.0, 0.0, 0.0, 0.0, 0.0, 0.0]
---
header: 
  seq: 2511
  stamp: 
    secs: 0
    nsecs: 800000012
  frame_id: odom
child_frame_id: base_link
pose: 
  pose: 
    position: 
      x: -0.0596506109635
      y: -0.84516191813
      z: 0.0
    orientation: 
      x: 0.0
      y: 0.0
      z: 0.0706269859312
      w: 0.997502796416
  covariance: [0.0, 0.0, 0.0, 0.0, 0.0, 0.0, 0.0, 0.0, 0.0, 0.0, 0.0, 0.0, 0.0, 0.0, 0.0, 0.0, 0.0, 0.0, 0.0, 0.0, 0.0, 0.0, 0.0, 0.0, 0.0, 0.0, 0.0, 0.0, 0.0, 0.0, 0.0, 0.0, 0.0, 0.0, 0.0, 0.0]
twist: 
  twist: 
    linear: 
      x: 0.00628318379922
      y: -2.77555756156e-18
      z: 0.0
    angular: 
      x: 0.0
      y: 0.0
      z: 0.197471490832
  covariance: [0.0, 0.0, 0.0, 0.0, 0.0, 0.0, 0.0, 0.0, 0.0, 0.0, 0.0, 0.0, 0.0, 0.0, 0.0, 0.0, 0.0, 0.0, 0.0, 0.0, 0.0, 0.0, 0.0, 0.0, 0.0, 0.0, 0.0, 0.0, 0.0, 0.0, 0.0, 0.0, 0.0, 0.0, 0.0, 0.0]
---
header: 
  seq: 2512
  stamp: 
    secs: 0
    nsecs: 850000024
  frame_id: odom
child_frame_id: base_link
pose: 
  pose: 
    position: 
      x: -0.0599611838571
      y: -0.84520925228
      z: 0.0
    orientation: 
      x: 0.0
      y: 0.0
      z: 0.0755505655635
      w: 0.997141971859
  covariance: [0.0, 0.0, 0.0, 0.0, 0.0, 0.0, 0.0, 0.0, 0.0, 0.0, 0.0, 0.0, 0.0, 0.0, 0.0, 0.0, 0.0, 0.0, 0.0, 0.0, 0.0, 0.0, 0.0, 0.0, 0.0, 0.0, 0.0, 0.0, 0.0, 0.0, 0.0, 0.0, 0.0, 0.0, 0.0, 0.0]
twist: 
  twist: 
    linear: 
      x: -0.00628318379922
      y: -2.77555756156e-18
      z: 0.0
    angular: 
      x: 0.0
      y: 0.0
      z: 0.197471490832
  covariance: [0.0, 0.0, 0.0, 0.0, 0.0, 0.0, 0.0, 0.0, 0.0, 0.0, 0.0, 0.0, 0.0, 0.0, 0.0, 0.0, 0.0, 0.0, 0.0, 0.0, 0.0, 0.0, 0.0, 0.0, 0.0, 0.0, 0.0, 0.0, 0.0, 0.0, 0.0, 0.0, 0.0, 0.0, 0.0, 0.0]
---
header: 
  seq: 2513
  stamp: 
    secs: 0
    nsecs: 899999976
  frame_id: odom
child_frame_id: base_link
pose: 
  pose: 
    position: 
      x: -0.0598314186902
      y: -0.845028949692
      z: 0.0
    orientation: 
      x: 0.0
      y: 0.0
      z: 0.0806959735752
      w: 0.996738762088
  covariance: [0.0, 0.0, 0.0, 0.0, 0.0, 0.0, 0.0, 0.0, 0.0, 0.0, 0.0, 0.0, 0.0, 0.0, 0.0, 0.0, 0.0, 0.0, 0.0, 0.0, 0.0, 0.0, 0.0, 0.0, 0.0, 0.0, 0.0, 0.0, 0.0, 0.0, 0.0, 0.0, 0.0, 0.0, 0.0, 0.0]
twist: 
  twist: 
    linear: 
      x: 0.00314159566952
      y: 0.00314159566952
      z: 0.0
    angular: 
      x: 0.0
      y: 0.0
      z: 0.206447715426
  covariance: [0.0, 0.0, 0.0, 0.0, 0.0, 0.0, 0.0, 0.0, 0.0, 0.0, 0.0, 0.0, 0.0, 0.0, 0.0, 0.0, 0.0, 0.0, 0.0, 0.0, 0.0, 0.0, 0.0, 0.0, 0.0, 0.0, 0.0, 0.0, 0.0, 0.0, 0.0, 0.0, 0.0, 0.0, 0.0, 0.0]
---
header: 
  seq: 2514
  stamp: 
    secs: 0
    nsecs: 949999988
  frame_id: odom
child_frame_id: base_link
pose: 
  pose: 
    position: 
      x: -0.0597778223037
      y: -0.845338503356
      z: 0.0
    orientation: 
      x: 0.0
      y: 0.0
      z: 0.0856156586472
      w: 0.996328238581
  covariance: [0.0, 0.0, 0.0, 0.0, 0.0, 0.0, 0.0, 0.0, 0.0, 0.0, 0.0, 0.0, 0.0, 0.0, 0.0, 0.0, 0.0, 0.0, 0.0, 0.0, 0.0, 0.0, 0.0, 0.0, 0.0, 0.0, 0.0, 0.0, 0.0, 0.0, 0.0, 0.0, 0.0, 0.0, 0.0, 0.0]
twist: 
  twist: 
    linear: 
      x: 0.0
      y: -0.00628318379922
      z: 0.0
    angular: 
      x: 0.0
      y: 0.0
      z: 0.197471490832
  covariance: [0.0, 0.0, 0.0, 0.0, 0.0, 0.0, 0.0, 0.0, 0.0, 0.0, 0.0, 0.0, 0.0, 0.0, 0.0, 0.0, 0.0, 0.0, 0.0, 0.0, 0.0, 0.0, 0.0, 0.0, 0.0, 0.0, 0.0, 0.0, 0.0, 0.0, 0.0, 0.0, 0.0, 0.0, 0.0, 0.0]
---
header: 
  seq: 2515
  stamp: 
    secs: 1
    nsecs:         0
  frame_id: odom
child_frame_id: base_link
pose: 
  pose: 
    position: 
      x: -0.059960708676
      y: -0.845212405788
      z: 0.0
    orientation: 
      x: 0.0
      y: 0.0
      z: 0.0907567327912
      w: 0.995873092042
  covariance: [0.0, 0.0, 0.0, 0.0, 0.0, 0.0, 0.0, 0.0, 0.0, 0.0, 0.0, 0.0, 0.0, 0.0, 0.0, 0.0, 0.0, 0.0, 0.0, 0.0, 0.0, 0.0, 0.0, 0.0, 0.0, 0.0, 0.0, 0.0, 0.0, 0.0, 0.0, 0.0, 0.0, 0.0, 0.0, 0.0]
twist: 
  twist: 
    linear: 
      x: -0.00314159189961
      y: 0.00314159189961
      z: 0.0
    angular: 
      x: 0.0
      y: 0.0
      z: 0.206447467689
  covariance: [0.0, 0.0, 0.0, 0.0, 0.0, 0.0, 0.0, 0.0, 0.0, 0.0, 0.0, 0.0, 0.0, 0.0, 0.0, 0.0, 0.0, 0.0, 0.0, 0.0, 0.0, 0.0, 0.0, 0.0, 0.0, 0.0, 0.0, 0.0, 0.0, 0.0, 0.0, 0.0, 0.0, 0.0, 0.0, 0.0]
---
header: 
  seq: 2516
  stamp: 
    secs: 1
    nsecs:  49999952
  frame_id: odom
child_frame_id: base_link
pose: 
  pose: 
    position: 
      x: -0.0598365056136
      y: -0.845028227555
      z: 0.0
    orientation: 
      x: 0.0
      y: 0.0
      z: 0.0958953893754
      w: 0.995391417633
  covariance: [0.0, 0.0, 0.0, 0.0, 0.0, 0.0, 0.0, 0.0, 0.0, 0.0, 0.0, 0.0, 0.0, 0.0, 0.0, 0.0, 0.0, 0.0, 0.0, 0.0, 0.0, 0.0, 0.0, 0.0, 0.0, 0.0, 0.0, 0.0, 0.0, 0.0, 0.0, 0.0, 0.0, 0.0, 0.0, 0.0]
twist: 
  twist: 
    linear: 
      x: 0.00314159566952
      y: 0.00314159566952
      z: 0.0
    angular: 
      x: 0.0
      y: 0.0
      z: 0.206447715426
  covariance: [0.0, 0.0, 0.0, 0.0, 0.0, 0.0, 0.0, 0.0, 0.0, 0.0, 0.0, 0.0, 0.0, 0.0, 0.0, 0.0, 0.0, 0.0, 0.0, 0.0, 0.0, 0.0, 0.0, 0.0, 0.0, 0.0, 0.0, 0.0, 0.0, 0.0, 0.0, 0.0, 0.0, 0.0, 0.0, 0.0]
---
header: 
  seq: 2517
  stamp: 
    secs: 1
    nsecs: 100000024
  frame_id: odom
child_frame_id: base_link
pose: 
  pose: 
    position: 
      x: -0.0599589673466
      y: -0.845213568177
      z: 0.0
    orientation: 
      x: 0.0
      y: 0.0
      z: 0.100584978809
      w: 0.994928470815
  covariance: [0.0, 0.0, 0.0, 0.0, 0.0, 0.0, 0.0, 0.0, 0.0, 0.0, 0.0, 0.0, 0.0, 0.0, 0.0, 0.0, 0.0, 0.0, 0.0, 0.0, 0.0, 0.0, 0.0, 0.0, 0.0, 0.0, 0.0, 0.0, 0.0, 0.0, 0.0, 0.0, 0.0, 0.0, 0.0, 0.0]
twist: 
  twist: 
    linear: 
      x: -0.0031415881297
      y: -0.0031415881297
      z: 0.0
    angular: 
      x: 0.0
      y: 0.0
      z: 0.188495287782
  covariance: [0.0, 0.0, 0.0, 0.0, 0.0, 0.0, 0.0, 0.0, 0.0, 0.0, 0.0, 0.0, 0.0, 0.0, 0.0, 0.0, 0.0, 0.0, 0.0, 0.0, 0.0, 0.0, 0.0, 0.0, 0.0, 0.0, 0.0, 0.0, 0.0, 0.0, 0.0, 0.0, 0.0, 0.0, 0.0, 0.0]
---
header: 
  seq: 2518
  stamp: 
    secs: 1
    nsecs: 149999976
  frame_id: odom
child_frame_id: base_link
pose: 
  pose: 
    position: 
      x: -0.0598384252593
      y: -0.845026973356
      z: 0.0
    orientation: 
      x: 0.0
      y: 0.0
      z: 0.105718629145
      w: 0.994396083787
  covariance: [0.0, 0.0, 0.0, 0.0, 0.0, 0.0, 0.0, 0.0, 0.0, 0.0, 0.0, 0.0, 0.0, 0.0, 0.0, 0.0, 0.0, 0.0, 0.0, 0.0, 0.0, 0.0, 0.0, 0.0, 0.0, 0.0, 0.0, 0.0, 0.0, 0.0, 0.0, 0.0, 0.0, 0.0, 0.0, 0.0]
twist: 
  twist: 
    linear: 
      x: 0.00314159566952
      y: 0.00314159566952
      z: 0.0
    angular: 
      x: 0.0
      y: 0.0
      z: 0.206447715426
  covariance: [0.0, 0.0, 0.0, 0.0, 0.0, 0.0, 0.0, 0.0, 0.0, 0.0, 0.0, 0.0, 0.0, 0.0, 0.0, 0.0, 0.0, 0.0, 0.0, 0.0, 0.0, 0.0, 0.0, 0.0, 0.0, 0.0, 0.0, 0.0, 0.0, 0.0, 0.0, 0.0, 0.0, 0.0, 0.0, 0.0]
---
header: 
  seq: 2519
  stamp: 
    secs: 1
    nsecs: 200000048
  frame_id: odom
child_frame_id: base_link
pose: 
  pose: 
    position: 
      x: -0.0599572034042
      y: -0.845214695955
      z: 0.0
    orientation: 
      x: 0.0
      y: 0.0
      z: 0.110403419125
      w: 0.993886857266
  covariance: [0.0, 0.0, 0.0, 0.0, 0.0, 0.0, 0.0, 0.0, 0.0, 0.0, 0.0, 0.0, 0.0, 0.0, 0.0, 0.0, 0.0, 0.0, 0.0, 0.0, 0.0, 0.0, 0.0, 0.0, 0.0, 0.0, 0.0, 0.0, 0.0, 0.0, 0.0, 0.0, 0.0, 0.0, 0.0, 0.0]
twist: 
  twist: 
    linear: 
      x: -0.0031415881297
      y: -0.0031415881297
      z: 0.0
    angular: 
      x: 0.0
      y: 0.0
      z: 0.188495287782
  covariance: [0.0, 0.0, 0.0, 0.0, 0.0, 0.0, 0.0, 0.0, 0.0, 0.0, 0.0, 0.0, 0.0, 0.0, 0.0, 0.0, 0.0, 0.0, 0.0, 0.0, 0.0, 0.0, 0.0, 0.0, 0.0, 0.0, 0.0, 0.0, 0.0, 0.0, 0.0, 0.0, 0.0, 0.0, 0.0, 0.0]
---
header: 
  seq: 2520
  stamp: 
    secs: 1
    nsecs: 250000000
  frame_id: odom
child_frame_id: base_link
pose: 
  pose: 
    position: 
      x: -0.0598403692961
      y: -0.845025757306
      z: 0.0
    orientation: 
      x: 0.0
      y: 0.0
      z: 0.115531562752
      w: 0.993303809521
  covariance: [0.0, 0.0, 0.0, 0.0, 0.0, 0.0, 0.0, 0.0, 0.0, 0.0, 0.0, 0.0, 0.0, 0.0, 0.0, 0.0, 0.0, 0.0, 0.0, 0.0, 0.0, 0.0, 0.0, 0.0, 0.0, 0.0, 0.0, 0.0, 0.0, 0.0, 0.0, 0.0, 0.0, 0.0, 0.0, 0.0]
twist: 
  twist: 
    linear: 
      x: 0.00314159566952
      y: 0.00314159566952
      z: 0.0
    angular: 
      x: 0.0
      y: 0.0
      z: 0.206447715426
  covariance: [0.0, 0.0, 0.0, 0.0, 0.0, 0.0, 0.0, 0.0, 0.0, 0.0, 0.0, 0.0, 0.0, 0.0, 0.0, 0.0, 0.0, 0.0, 0.0, 0.0, 0.0, 0.0, 0.0, 0.0, 0.0, 0.0, 0.0, 0.0, 0.0, 0.0, 0.0, 0.0, 0.0, 0.0, 0.0, 0.0]
---
header: 
  seq: 2521
  stamp: 
    secs: 1
    nsecs: 299999952
  frame_id: odom
child_frame_id: base_link
pose: 
  pose: 
    position: 
      x: -0.0599552469187
      y: -0.845215891874
      z: 0.0
    orientation: 
      x: 0.0
      y: 0.0
      z: 0.120656628871
      w: 0.992694302346
  covariance: [0.0, 0.0, 0.0, 0.0, 0.0, 0.0, 0.0, 0.0, 0.0, 0.0, 0.0, 0.0, 0.0, 0.0, 0.0, 0.0, 0.0, 0.0, 0.0, 0.0, 0.0, 0.0, 0.0, 0.0, 0.0, 0.0, 0.0, 0.0, 0.0, 0.0, 0.0, 0.0, 0.0, 0.0, 0.0, 0.0]
twist: 
  twist: 
    linear: 
      x: -0.00314159566952
      y: -0.00314159566952
      z: 0.0
    angular: 
      x: 0.0
      y: 0.0
      z: 0.206447715426
  covariance: [0.0, 0.0, 0.0, 0.0, 0.0, 0.0, 0.0, 0.0, 0.0, 0.0, 0.0, 0.0, 0.0, 0.0, 0.0, 0.0, 0.0, 0.0, 0.0, 0.0, 0.0, 0.0, 0.0, 0.0, 0.0, 0.0, 0.0, 0.0, 0.0, 0.0, 0.0, 0.0, 0.0, 0.0, 0.0, 0.0]
---
header: 
  seq: 2522
  stamp: 
    secs: 1
    nsecs: 350000024
  frame_id: odom
child_frame_id: base_link
pose: 
  pose: 
    position: 
      x: -0.0599552469187
      y: -0.845215891874
      z: 0.0
    orientation: 
      x: 0.0
      y: 0.0
      z: 0.125555860425
      w: 0.992086551624
  covariance: [0.0, 0.0, 0.0, 0.0, 0.0, 0.0, 0.0, 0.0, 0.0, 0.0, 0.0, 0.0, 0.0, 0.0, 0.0, 0.0, 0.0, 0.0, 0.0, 0.0, 0.0, 0.0, 0.0, 0.0, 0.0, 0.0, 0.0, 0.0, 0.0, 0.0, 0.0, 0.0, 0.0, 0.0, 0.0, 0.0]
twist: 
  twist: 
    linear: 
      x: 0.0
      y: -2.77555756156e-18
      z: 0.0
    angular: 
      x: 0.0
      y: 0.0
      z: 0.197471253867
  covariance: [0.0, 0.0, 0.0, 0.0, 0.0, 0.0, 0.0, 0.0, 0.0, 0.0, 0.0, 0.0, 0.0, 0.0, 0.0, 0.0, 0.0, 0.0, 0.0, 0.0, 0.0, 0.0, 0.0, 0.0, 0.0, 0.0, 0.0, 0.0, 0.0, 0.0, 0.0, 0.0, 0.0, 0.0, 0.0, 0.0]
---
header: 
  seq: 2523
  stamp: 
    secs: 1
    nsecs: 399999976
  frame_id: odom
child_frame_id: base_link
pose: 
  pose: 
    position: 
      x: -0.0598442324109
      y: -0.845023476175
      z: 0.0
    orientation: 
      x: 0.0
      y: 0.0
      z: 0.130674510563
      w: 0.991425323607
  covariance: [0.0, 0.0, 0.0, 0.0, 0.0, 0.0, 0.0, 0.0, 0.0, 0.0, 0.0, 0.0, 0.0, 0.0, 0.0, 0.0, 0.0, 0.0, 0.0, 0.0, 0.0, 0.0, 0.0, 0.0, 0.0, 0.0, 0.0, 0.0, 0.0, 0.0, 0.0, 0.0, 0.0, 0.0, 0.0, 0.0]
twist: 
  twist: 
    linear: 
      x: 0.00314159566952
      y: 0.00314159566952
      z: 0.0
    angular: 
      x: 0.0
      y: 0.0
      z: 0.206447715426
  covariance: [0.0, 0.0, 0.0, 0.0, 0.0, 0.0, 0.0, 0.0, 0.0, 0.0, 0.0, 0.0, 0.0, 0.0, 0.0, 0.0, 0.0, 0.0, 0.0, 0.0, 0.0, 0.0, 0.0, 0.0, 0.0, 0.0, 0.0, 0.0, 0.0, 0.0, 0.0, 0.0, 0.0, 0.0, 0.0, 0.0]
---
header: 
  seq: 2524
  stamp: 
    secs: 1
    nsecs: 450000048
  frame_id: odom
child_frame_id: base_link
pose: 
  pose: 
    position: 
      x: -0.0601468441193
      y: -0.845107869291
      z: 0.0
    orientation: 
      x: 0.0
      y: 0.0
      z: 0.135567355386
      w: 0.990768132387
  covariance: [0.0, 0.0, 0.0, 0.0, 0.0, 0.0, 0.0, 0.0, 0.0, 0.0, 0.0, 0.0, 0.0, 0.0, 0.0, 0.0, 0.0, 0.0, 0.0, 0.0, 0.0, 0.0, 0.0, 0.0, 0.0, 0.0, 0.0, 0.0, 0.0, 0.0, 0.0, 0.0, 0.0, 0.0, 0.0, 0.0]
twist: 
  twist: 
    linear: 
      x: -0.00628317625941
      y: -2.77555756156e-18
      z: 0.0
    angular: 
      x: 0.0
      y: 0.0
      z: 0.197471253867
  covariance: [0.0, 0.0, 0.0, 0.0, 0.0, 0.0, 0.0, 0.0, 0.0, 0.0, 0.0, 0.0, 0.0, 0.0, 0.0, 0.0, 0.0, 0.0, 0.0, 0.0, 0.0, 0.0, 0.0, 0.0, 0.0, 0.0, 0.0, 0.0, 0.0, 0.0, 0.0, 0.0, 0.0, 0.0, 0.0, 0.0]
---
header: 
  seq: 2525
  stamp: 
    secs: 1
    nsecs: 500000000
  frame_id: odom
child_frame_id: base_link
pose: 
  pose: 
    position: 
      x: -0.0598450804096
      y: -0.845020492477
      z: 0.0
    orientation: 
      x: 0.0
      y: 0.0
      z: 0.140456896184
      w: 0.990086794334
  covariance: [0.0, 0.0, 0.0, 0.0, 0.0, 0.0, 0.0, 0.0, 0.0, 0.0, 0.0, 0.0, 0.0, 0.0, 0.0, 0.0, 0.0, 0.0, 0.0, 0.0, 0.0, 0.0, 0.0, 0.0, 0.0, 0.0, 0.0, 0.0, 0.0, 0.0, 0.0, 0.0, 0.0, 0.0, 0.0, 0.0]
twist: 
  twist: 
    linear: 
      x: 0.00628319133904
      y: 0.0
      z: 0.0
    angular: 
      x: 0.0
      y: 0.0
      z: 0.197471727799
  covariance: [0.0, 0.0, 0.0, 0.0, 0.0, 0.0, 0.0, 0.0, 0.0, 0.0, 0.0, 0.0, 0.0, 0.0, 0.0, 0.0, 0.0, 0.0, 0.0, 0.0, 0.0, 0.0, 0.0, 0.0, 0.0, 0.0, 0.0, 0.0, 0.0, 0.0, 0.0, 0.0, 0.0, 0.0, 0.0, 0.0]
---
header: 
  seq: 2526
  stamp: 
    secs: 1
    nsecs: 549999952
  frame_id: odom
child_frame_id: base_link
pose: 
  pose: 
    position: 
      x: -0.0601459667026
      y: -0.845110844471
      z: 0.0
    orientation: 
      x: 0.0
      y: 0.0
      z: 0.14534301379
      w: 0.989381326053
  covariance: [0.0, 0.0, 0.0, 0.0, 0.0, 0.0, 0.0, 0.0, 0.0, 0.0, 0.0, 0.0, 0.0, 0.0, 0.0, 0.0, 0.0, 0.0, 0.0, 0.0, 0.0, 0.0, 0.0, 0.0, 0.0, 0.0, 0.0, 0.0, 0.0, 0.0, 0.0, 0.0, 0.0, 0.0, 0.0, 0.0]
twist: 
  twist: 
    linear: 
      x: -0.00628319133904
      y: 0.0
      z: 0.0
    angular: 
      x: 0.0
      y: 0.0
      z: 0.197471727799
  covariance: [0.0, 0.0, 0.0, 0.0, 0.0, 0.0, 0.0, 0.0, 0.0, 0.0, 0.0, 0.0, 0.0, 0.0, 0.0, 0.0, 0.0, 0.0, 0.0, 0.0, 0.0, 0.0, 0.0, 0.0, 0.0, 0.0, 0.0, 0.0, 0.0, 0.0, 0.0, 0.0, 0.0, 0.0, 0.0, 0.0]
---
header: 
  seq: 2527
  stamp: 
    secs: 1
    nsecs: 600000024
  frame_id: odom
child_frame_id: base_link
pose: 
  pose: 
    position: 
      x: -0.0598459871587
      y: -0.845017526106
      z: 0.0
    orientation: 
      x: 0.0
      y: 0.0
      z: 0.150225589121
      w: 0.988651744738
  covariance: [0.0, 0.0, 0.0, 0.0, 0.0, 0.0, 0.0, 0.0, 0.0, 0.0, 0.0, 0.0, 0.0, 0.0, 0.0, 0.0, 0.0, 0.0, 0.0, 0.0, 0.0, 0.0, 0.0, 0.0, 0.0, 0.0, 0.0, 0.0, 0.0, 0.0, 0.0, 0.0, 0.0, 0.0, 0.0, 0.0]
twist: 
  twist: 
    linear: 
      x: 0.00628317625941
      y: -2.77555756156e-18
      z: 0.0
    angular: 
      x: 0.0
      y: 0.0
      z: 0.197471253867
  covariance: [0.0, 0.0, 0.0, 0.0, 0.0, 0.0, 0.0, 0.0, 0.0, 0.0, 0.0, 0.0, 0.0, 0.0, 0.0, 0.0, 0.0, 0.0, 0.0, 0.0, 0.0, 0.0, 0.0, 0.0, 0.0, 0.0, 0.0, 0.0, 0.0, 0.0, 0.0, 0.0, 0.0, 0.0, 0.0, 0.0]
---
header: 
  seq: 2528
  stamp: 
    secs: 1
    nsecs: 649999976
  frame_id: odom
child_frame_id: base_link
pose: 
  pose: 
    position: 
      x: -0.0599472823948
      y: -0.845215231182
      z: 0.0
    orientation: 
      x: 0.0
      y: 0.0
      z: 0.15532618308
      w: 0.987863237928
  covariance: [0.0, 0.0, 0.0, 0.0, 0.0, 0.0, 0.0, 0.0, 0.0, 0.0, 0.0, 0.0, 0.0, 0.0, 0.0, 0.0, 0.0, 0.0, 0.0, 0.0, 0.0, 0.0, 0.0, 0.0, 0.0, 0.0, 0.0, 0.0, 0.0, 0.0, 0.0, 0.0, 0.0, 0.0, 0.0, 0.0]
twist: 
  twist: 
    linear: 
      x: -0.00314159566952
      y: -0.00314159566952
      z: 0.0
    angular: 
      x: 0.0
      y: 0.0
      z: 0.206447715426
  covariance: [0.0, 0.0, 0.0, 0.0, 0.0, 0.0, 0.0, 0.0, 0.0, 0.0, 0.0, 0.0, 0.0, 0.0, 0.0, 0.0, 0.0, 0.0, 0.0, 0.0, 0.0, 0.0, 0.0, 0.0, 0.0, 0.0, 0.0, 0.0, 0.0, 0.0, 0.0, 0.0, 0.0, 0.0, 0.0, 0.0]
---
header: 
  seq: 2529
  stamp: 
    secs: 1
    nsecs: 700000048
  frame_id: odom
child_frame_id: base_link
pose: 
  pose: 
    position: 
      x: -0.0601460225271
      y: -0.845115982092
      z: 0.0
    orientation: 
      x: 0.0
      y: 0.0
      z: 0.160422639491
      w: 0.987048416613
  covariance: [0.0, 0.0, 0.0, 0.0, 0.0, 0.0, 0.0, 0.0, 0.0, 0.0, 0.0, 0.0, 0.0, 0.0, 0.0, 0.0, 0.0, 0.0, 0.0, 0.0, 0.0, 0.0, 0.0, 0.0, 0.0, 0.0, 0.0, 0.0, 0.0, 0.0, 0.0, 0.0, 0.0, 0.0, 0.0, 0.0]
twist: 
  twist: 
    linear: 
      x: -0.0031415881297
      y: 0.0031415881297
      z: 0.0
    angular: 
      x: 0.0
      y: 0.0
      z: 0.206447219952
  covariance: [0.0, 0.0, 0.0, 0.0, 0.0, 0.0, 0.0, 0.0, 0.0, 0.0, 0.0, 0.0, 0.0, 0.0, 0.0, 0.0, 0.0, 0.0, 0.0, 0.0, 0.0, 0.0, 0.0, 0.0, 0.0, 0.0, 0.0, 0.0, 0.0, 0.0, 0.0, 0.0, 0.0, 0.0, 0.0, 0.0]
---
header: 
  seq: 2530
  stamp: 
    secs: 1
    nsecs: 750000000
  frame_id: odom
child_frame_id: base_link
pose: 
  pose: 
    position: 
      x: -0.0598490301466
      y: -0.845013553727
      z: 0.0
    orientation: 
      x: 0.0
      y: 0.0
      z: 0.165293514029
      w: 0.986244419107
  covariance: [0.0, 0.0, 0.0, 0.0, 0.0, 0.0, 0.0, 0.0, 0.0, 0.0, 0.0, 0.0, 0.0, 0.0, 0.0, 0.0, 0.0, 0.0, 0.0, 0.0, 0.0, 0.0, 0.0, 0.0, 0.0, 0.0, 0.0, 0.0, 0.0, 0.0, 0.0, 0.0, 0.0, 0.0, 0.0, 0.0]
twist: 
  twist: 
    linear: 
      x: 0.00628319133904
      y: 0.0
      z: 0.0
    angular: 
      x: 0.0
      y: 0.0
      z: 0.197471727799
  covariance: [0.0, 0.0, 0.0, 0.0, 0.0, 0.0, 0.0, 0.0, 0.0, 0.0, 0.0, 0.0, 0.0, 0.0, 0.0, 0.0, 0.0, 0.0, 0.0, 0.0, 0.0, 0.0, 0.0, 0.0, 0.0, 0.0, 0.0, 0.0, 0.0, 0.0, 0.0, 0.0, 0.0, 0.0, 0.0, 0.0]
---
header: 
  seq: 2531
  stamp: 
    secs: 1
    nsecs: 799999952
  frame_id: odom
child_frame_id: base_link
pose: 
  pose: 
    position: 
      x: -0.0601449967328
      y: -0.845118909429
      z: 0.0
    orientation: 
      x: 0.0
      y: 0.0
      z: 0.170160360062
      w: 0.985416385019
  covariance: [0.0, 0.0, 0.0, 0.0, 0.0, 0.0, 0.0, 0.0, 0.0, 0.0, 0.0, 0.0, 0.0, 0.0, 0.0, 0.0, 0.0, 0.0, 0.0, 0.0, 0.0, 0.0, 0.0, 0.0, 0.0, 0.0, 0.0, 0.0, 0.0, 0.0, 0.0, 0.0, 0.0, 0.0, 0.0, 0.0]
twist: 
  twist: 
    linear: 
      x: -0.00628319133904
      y: 0.0
      z: 0.0
    angular: 
      x: 0.0
      y: 0.0
      z: 0.197471727799
  covariance: [0.0, 0.0, 0.0, 0.0, 0.0, 0.0, 0.0, 0.0, 0.0, 0.0, 0.0, 0.0, 0.0, 0.0, 0.0, 0.0, 0.0, 0.0, 0.0, 0.0, 0.0, 0.0, 0.0, 0.0, 0.0, 0.0, 0.0, 0.0, 0.0, 0.0, 0.0, 0.0, 0.0, 0.0, 0.0, 0.0]
---
header: 
  seq: 2532
  stamp: 
    secs: 1
    nsecs: 850000024
  frame_id: odom
child_frame_id: base_link
pose: 
  pose: 
    position: 
      x: -0.0600517676309
      y: -0.844917275214
      z: 0.0
    orientation: 
      x: 0.0
      y: 0.0
      z: 0.175243990287
      w: 0.984525034658
  covariance: [0.0, 0.0, 0.0, 0.0, 0.0, 0.0, 0.0, 0.0, 0.0, 0.0, 0.0, 0.0, 0.0, 0.0, 0.0, 0.0, 0.0, 0.0, 0.0, 0.0, 0.0, 0.0, 0.0, 0.0, 0.0, 0.0, 0.0, 0.0, 0.0, 0.0, 0.0, 0.0, 0.0, 0.0, 0.0, 0.0]
twist: 
  twist: 
    linear: 
      x: 0.0031415881297
      y: 0.0031415881297
      z: 0.0
    angular: 
      x: 0.0
      y: 0.0
      z: 0.206447219952
  covariance: [0.0, 0.0, 0.0, 0.0, 0.0, 0.0, 0.0, 0.0, 0.0, 0.0, 0.0, 0.0, 0.0, 0.0, 0.0, 0.0, 0.0, 0.0, 0.0, 0.0, 0.0, 0.0, 0.0, 0.0, 0.0, 0.0, 0.0, 0.0, 0.0, 0.0, 0.0, 0.0, 0.0, 0.0, 0.0, 0.0]
---
header: 
  seq: 2533
  stamp: 
    secs: 1
    nsecs: 899999976
  frame_id: odom
child_frame_id: base_link
pose: 
  pose: 
    position: 
      x: -0.0601430922627
      y: -0.845119779124
      z: 0.0
    orientation: 
      x: 0.0
      y: 0.0
      z: 0.179881492256
      w: 0.983688288404
  covariance: [0.0, 0.0, 0.0, 0.0, 0.0, 0.0, 0.0, 0.0, 0.0, 0.0, 0.0, 0.0, 0.0, 0.0, 0.0, 0.0, 0.0, 0.0, 0.0, 0.0, 0.0, 0.0, 0.0, 0.0, 0.0, 0.0, 0.0, 0.0, 0.0, 0.0, 0.0, 0.0, 0.0, 0.0, 0.0, 0.0]
twist: 
  twist: 
    linear: 
      x: -0.00314159566952
      y: -0.00314159566952
      z: 0.0
    angular: 
      x: 0.0
      y: 0.0
      z: 0.188495740171
  covariance: [0.0, 0.0, 0.0, 0.0, 0.0, 0.0, 0.0, 0.0, 0.0, 0.0, 0.0, 0.0, 0.0, 0.0, 0.0, 0.0, 0.0, 0.0, 0.0, 0.0, 0.0, 0.0, 0.0, 0.0, 0.0, 0.0, 0.0, 0.0, 0.0, 0.0, 0.0, 0.0, 0.0, 0.0, 0.0, 0.0]
---
header: 
  seq: 2534
  stamp: 
    secs: 1
    nsecs: 950000048
  frame_id: odom
child_frame_id: base_link
pose: 
  pose: 
    position: 
      x: -0.0600538627806
      y: -0.844916343332
      z: 0.0
    orientation: 
      x: 0.0
      y: 0.0
      z: 0.184956074014
      w: 0.982746788692
  covariance: [0.0, 0.0, 0.0, 0.0, 0.0, 0.0, 0.0, 0.0, 0.0, 0.0, 0.0, 0.0, 0.0, 0.0, 0.0, 0.0, 0.0, 0.0, 0.0, 0.0, 0.0, 0.0, 0.0, 0.0, 0.0, 0.0, 0.0, 0.0, 0.0, 0.0, 0.0, 0.0, 0.0, 0.0, 0.0, 0.0]
twist: 
  twist: 
    linear: 
      x: 0.0031415881297
      y: 0.0031415881297
      z: 0.0
    angular: 
      x: 0.0
      y: 0.0
      z: 0.206447219952
  covariance: [0.0, 0.0, 0.0, 0.0, 0.0, 0.0, 0.0, 0.0, 0.0, 0.0, 0.0, 0.0, 0.0, 0.0, 0.0, 0.0, 0.0, 0.0, 0.0, 0.0, 0.0, 0.0, 0.0, 0.0, 0.0, 0.0, 0.0, 0.0, 0.0, 0.0, 0.0, 0.0, 0.0, 0.0, 0.0, 0.0]
---
header: 
  seq: 2535
  stamp: 
    secs: 2
    nsecs:         0
  frame_id: odom
child_frame_id: base_link
pose: 
  pose: 
    position: 
      x: -0.0599367724312
      y: -0.845207866734
      z: 0.0
    orientation: 
      x: 0.0
      y: 0.0
      z: 0.189805413449
      w: 0.981821727721
  covariance: [0.0, 0.0, 0.0, 0.0, 0.0, 0.0, 0.0, 0.0, 0.0, 0.0, 0.0, 0.0, 0.0, 0.0, 0.0, 0.0, 0.0, 0.0, 0.0, 0.0, 0.0, 0.0, 0.0, 0.0, 0.0, 0.0, 0.0, 0.0, 0.0, 0.0, 0.0, 0.0, 0.0, 0.0, 0.0, 0.0]
twist: 
  twist: 
    linear: 
      x: 0.0
      y: -0.00628319133904
      z: 0.0
    angular: 
      x: 0.0
      y: 0.0
      z: 0.197471727799
  covariance: [0.0, 0.0, 0.0, 0.0, 0.0, 0.0, 0.0, 0.0, 0.0, 0.0, 0.0, 0.0, 0.0, 0.0, 0.0, 0.0, 0.0, 0.0, 0.0, 0.0, 0.0, 0.0, 0.0, 0.0, 0.0, 0.0, 0.0, 0.0, 0.0, 0.0, 0.0, 0.0, 0.0, 0.0, 0.0, 0.0]
---
header: 
  seq: 2536
  stamp: 
    secs: 2
    nsecs:  49999952
  frame_id: odom
child_frame_id: base_link
pose: 
  pose: 
    position: 
      x: -0.0601419686883
      y: -0.845122763749
      z: 0.0
    orientation: 
      x: 0.0
      y: 0.0
      z: 0.194870229404
      w: 0.980829033875
  covariance: [0.0, 0.0, 0.0, 0.0, 0.0, 0.0, 0.0, 0.0, 0.0, 0.0, 0.0, 0.0, 0.0, 0.0, 0.0, 0.0, 0.0, 0.0, 0.0, 0.0, 0.0, 0.0, 0.0, 0.0, 0.0, 0.0, 0.0, 0.0, 0.0, 0.0, 0.0, 0.0, 0.0, 0.0, 0.0, 0.0]
twist: 
  twist: 
    linear: 
      x: -0.00314159566952
      y: 0.00314159566952
      z: 0.0
    angular: 
      x: 0.0
      y: 0.0
      z: 0.206447715426
  covariance: [0.0, 0.0, 0.0, 0.0, 0.0, 0.0, 0.0, 0.0, 0.0, 0.0, 0.0, 0.0, 0.0, 0.0, 0.0, 0.0, 0.0, 0.0, 0.0, 0.0, 0.0, 0.0, 0.0, 0.0, 0.0, 0.0, 0.0, 0.0, 0.0, 0.0, 0.0, 0.0, 0.0, 0.0, 0.0, 0.0]
---
header: 
  seq: 2537
  stamp: 
    secs: 2
    nsecs:  99999905
  frame_id: odom
child_frame_id: base_link
pose: 
  pose: 
    position: 
      x: -0.0600589883124
      y: -0.844916699975
      z: 0.0
    orientation: 
      x: 0.0
      y: 0.0
      z: 0.199929854444
      w: 0.979810212899
  covariance: [0.0, 0.0, 0.0, 0.0, 0.0, 0.0, 0.0, 0.0, 0.0, 0.0, 0.0, 0.0, 0.0, 0.0, 0.0, 0.0, 0.0, 0.0, 0.0, 0.0, 0.0, 0.0, 0.0, 0.0, 0.0, 0.0, 0.0, 0.0, 0.0, 0.0, 0.0, 0.0, 0.0, 0.0, 0.0, 0.0]
twist: 
  twist: 
    linear: 
      x: 0.00314159560669
      y: 0.00314159560669
      z: 0.0
    angular: 
      x: 0.0
      y: 0.0
      z: 0.206447711297
  covariance: [0.0, 0.0, 0.0, 0.0, 0.0, 0.0, 0.0, 0.0, 0.0, 0.0, 0.0, 0.0, 0.0, 0.0, 0.0, 0.0, 0.0, 0.0, 0.0, 0.0, 0.0, 0.0, 0.0, 0.0, 0.0, 0.0, 0.0, 0.0, 0.0, 0.0, 0.0, 0.0, 0.0, 0.0, 0.0, 0.0]
---
header: 
  seq: 2538
  stamp: 
    secs: 2
    nsecs: 150000095
  frame_id: odom
child_frame_id: base_link
pose: 
  pose: 
    position: 
      x: -0.0601400229263
      y: -0.845123536657
      z: 0.0
    orientation: 
      x: 0.0
      y: 0.0
      z: 0.204544864327
      w: 0.978857190032
  covariance: [0.0, 0.0, 0.0, 0.0, 0.0, 0.0, 0.0, 0.0, 0.0, 0.0, 0.0, 0.0, 0.0, 0.0, 0.0, 0.0, 0.0, 0.0, 0.0, 0.0, 0.0, 0.0, 0.0, 0.0, 0.0, 0.0, 0.0, 0.0, 0.0, 0.0, 0.0, 0.0, 0.0, 0.0, 0.0, 0.0]
twist: 
  twist: 
    linear: 
      x: -0.00314158071558
      y: -0.00314158071558
      z: 0.0
    angular: 
      x: 0.0
      y: 0.0
      z: 0.188494842935
  covariance: [0.0, 0.0, 0.0, 0.0, 0.0, 0.0, 0.0, 0.0, 0.0, 0.0, 0.0, 0.0, 0.0, 0.0, 0.0, 0.0, 0.0, 0.0, 0.0, 0.0, 0.0, 0.0, 0.0, 0.0, 0.0, 0.0, 0.0, 0.0, 0.0, 0.0, 0.0, 0.0, 0.0, 0.0, 0.0, 0.0]
---
header: 
  seq: 2539
  stamp: 
    secs: 2
    nsecs: 200000048
  frame_id: odom
child_frame_id: base_link
pose: 
  pose: 
    position: 
      x: -0.0600611276376
      y: -0.844915874539
      z: 0.0
    orientation: 
      x: 0.0
      y: 0.0
      z: 0.2095941835
      w: 0.977788462932
  covariance: [0.0, 0.0, 0.0, 0.0, 0.0, 0.0, 0.0, 0.0, 0.0, 0.0, 0.0, 0.0, 0.0, 0.0, 0.0, 0.0, 0.0, 0.0, 0.0, 0.0, 0.0, 0.0, 0.0, 0.0, 0.0, 0.0, 0.0, 0.0, 0.0, 0.0, 0.0, 0.0, 0.0, 0.0, 0.0, 0.0]
twist: 
  twist: 
    linear: 
      x: 0.00314159560669
      y: 0.00314159560669
      z: 0.0
    angular: 
      x: 0.0
      y: 0.0
      z: 0.206447711297
  covariance: [0.0, 0.0, 0.0, 0.0, 0.0, 0.0, 0.0, 0.0, 0.0, 0.0, 0.0, 0.0, 0.0, 0.0, 0.0, 0.0, 0.0, 0.0, 0.0, 0.0, 0.0, 0.0, 0.0, 0.0, 0.0, 0.0, 0.0, 0.0, 0.0, 0.0, 0.0, 0.0, 0.0, 0.0, 0.0, 0.0]
---
header: 
  seq: 2540
  stamp: 
    secs: 2
    nsecs: 250000000
  frame_id: odom
child_frame_id: base_link
pose: 
  pose: 
    position: 
      x: -0.0603463997084
      y: -0.845047464393
      z: 0.0
    orientation: 
      x: 0.0
      y: 0.0
      z: 0.214418744591
      w: 0.976741829742
  covariance: [0.0, 0.0, 0.0, 0.0, 0.0, 0.0, 0.0, 0.0, 0.0, 0.0, 0.0, 0.0, 0.0, 0.0, 0.0, 0.0, 0.0, 0.0, 0.0, 0.0, 0.0, 0.0, 0.0, 0.0, 0.0, 0.0, 0.0, 0.0, 0.0, 0.0, 0.0, 0.0, 0.0, 0.0, 0.0, 0.0]
twist: 
  twist: 
    linear: 
      x: -0.00628319133904
      y: 0.0
      z: 0.0
    angular: 
      x: 0.0
      y: 0.0
      z: 0.197471727799
  covariance: [0.0, 0.0, 0.0, 0.0, 0.0, 0.0, 0.0, 0.0, 0.0, 0.0, 0.0, 0.0, 0.0, 0.0, 0.0, 0.0, 0.0, 0.0, 0.0, 0.0, 0.0, 0.0, 0.0, 0.0, 0.0, 0.0, 0.0, 0.0, 0.0, 0.0, 0.0, 0.0, 0.0, 0.0, 0.0, 0.0]
---
header: 
  seq: 2541
  stamp: 
    secs: 2
    nsecs: 299999952
  frame_id: odom
child_frame_id: base_link
pose: 
  pose: 
    position: 
      x: -0.0600624407842
      y: -0.844913064343
      z: 0.0
    orientation: 
      x: 0.0
      y: 0.0
      z: 0.219238079905
      w: 0.975671391566
  covariance: [0.0, 0.0, 0.0, 0.0, 0.0, 0.0, 0.0, 0.0, 0.0, 0.0, 0.0, 0.0, 0.0, 0.0, 0.0, 0.0, 0.0, 0.0, 0.0, 0.0, 0.0, 0.0, 0.0, 0.0, 0.0, 0.0, 0.0, 0.0, 0.0, 0.0, 0.0, 0.0, 0.0, 0.0, 0.0, 0.0]
twist: 
  twist: 
    linear: 
      x: 0.00628319133904
      y: 0.0
      z: 0.0
    angular: 
      x: 0.0
      y: 0.0
      z: 0.197471727799
  covariance: [0.0, 0.0, 0.0, 0.0, 0.0, 0.0, 0.0, 0.0, 0.0, 0.0, 0.0, 0.0, 0.0, 0.0, 0.0, 0.0, 0.0, 0.0, 0.0, 0.0, 0.0, 0.0, 0.0, 0.0, 0.0, 0.0, 0.0, 0.0, 0.0, 0.0, 0.0, 0.0, 0.0, 0.0, 0.0, 0.0]
---
header: 
  seq: 2542
  stamp: 
    secs: 2
    nsecs: 349999905
  frame_id: odom
child_frame_id: base_link
pose: 
  pose: 
    position: 
      x: -0.0601350570467
      y: -0.845123004574
      z: 0.0
    orientation: 
      x: 0.0
      y: 0.0
      z: 0.224270760949
      w: 0.974526872787
  covariance: [0.0, 0.0, 0.0, 0.0, 0.0, 0.0, 0.0, 0.0, 0.0, 0.0, 0.0, 0.0, 0.0, 0.0, 0.0, 0.0, 0.0, 0.0, 0.0, 0.0, 0.0, 0.0, 0.0, 0.0, 0.0, 0.0, 0.0, 0.0, 0.0, 0.0, 0.0, 0.0, 0.0, 0.0, 0.0, 0.0]
twist: 
  twist: 
    linear: 
      x: -0.00314159560669
      y: -0.00314159560669
      z: 0.0
    angular: 
      x: 0.0
      y: 0.0
      z: 0.206447711297
  covariance: [0.0, 0.0, 0.0, 0.0, 0.0, 0.0, 0.0, 0.0, 0.0, 0.0, 0.0, 0.0, 0.0, 0.0, 0.0, 0.0, 0.0, 0.0, 0.0, 0.0, 0.0, 0.0, 0.0, 0.0, 0.0, 0.0, 0.0, 0.0, 0.0, 0.0, 0.0, 0.0, 0.0, 0.0, 0.0, 0.0]
---
header: 
  seq: 2543
  stamp: 
    secs: 2
    nsecs: 400000095
  frame_id: odom
child_frame_id: base_link
pose: 
  pose: 
    position: 
      x: -0.0603457356517
      y: -0.845052559223
      z: 0.0
    orientation: 
      x: 0.0
      y: 0.0
      z: 0.229297467913
      w: 0.973356394754
  covariance: [0.0, 0.0, 0.0, 0.0, 0.0, 0.0, 0.0, 0.0, 0.0, 0.0, 0.0, 0.0, 0.0, 0.0, 0.0, 0.0, 0.0, 0.0, 0.0, 0.0, 0.0, 0.0, 0.0, 0.0, 0.0, 0.0, 0.0, 0.0, 0.0, 0.0, 0.0, 0.0, 0.0, 0.0, 0.0, 0.0]
twist: 
  twist: 
    linear: 
      x: -0.00314158071558
      y: 0.00314158071558
      z: 0.0
    angular: 
      x: 0.0
      y: 0.0
      z: 0.206446732738
  covariance: [0.0, 0.0, 0.0, 0.0, 0.0, 0.0, 0.0, 0.0, 0.0, 0.0, 0.0, 0.0, 0.0, 0.0, 0.0, 0.0, 0.0, 0.0, 0.0, 0.0, 0.0, 0.0, 0.0, 0.0, 0.0, 0.0, 0.0, 0.0, 0.0, 0.0, 0.0, 0.0, 0.0, 0.0, 0.0, 0.0]
---
header: 
  seq: 2544
  stamp: 
    secs: 2
    nsecs: 450000048
  frame_id: odom
child_frame_id: base_link
pose: 
  pose: 
    position: 
      x: -0.0600660099806
      y: -0.84490955715
      z: 0.0
    orientation: 
      x: 0.0
      y: 0.0
      z: 0.234099908808
      w: 0.972212545021
  covariance: [0.0, 0.0, 0.0, 0.0, 0.0, 0.0, 0.0, 0.0, 0.0, 0.0, 0.0, 0.0, 0.0, 0.0, 0.0, 0.0, 0.0, 0.0, 0.0, 0.0, 0.0, 0.0, 0.0, 0.0, 0.0, 0.0, 0.0, 0.0, 0.0, 0.0, 0.0, 0.0, 0.0, 0.0, 0.0, 0.0]
twist: 
  twist: 
    linear: 
      x: 0.00628319121338
      y: 0.0
      z: 0.0
    angular: 
      x: 0.0
      y: 0.0
      z: 0.197471723849
  covariance: [0.0, 0.0, 0.0, 0.0, 0.0, 0.0, 0.0, 0.0, 0.0, 0.0, 0.0, 0.0, 0.0, 0.0, 0.0, 0.0, 0.0, 0.0, 0.0, 0.0, 0.0, 0.0, 0.0, 0.0, 0.0, 0.0, 0.0, 0.0, 0.0, 0.0, 0.0, 0.0, 0.0, 0.0, 0.0, 0.0]
---
header: 
  seq: 2545
  stamp: 
    secs: 2
    nsecs: 500000000
  frame_id: odom
child_frame_id: base_link
pose: 
  pose: 
    position: 
      x: -0.0603443100979
      y: -0.845055314101
      z: 0.0
    orientation: 
      x: 0.0
      y: 0.0
      z: 0.238896644259
      w: 0.971045000688
  covariance: [0.0, 0.0, 0.0, 0.0, 0.0, 0.0, 0.0, 0.0, 0.0, 0.0, 0.0, 0.0, 0.0, 0.0, 0.0, 0.0, 0.0, 0.0, 0.0, 0.0, 0.0, 0.0, 0.0, 0.0, 0.0, 0.0, 0.0, 0.0, 0.0, 0.0, 0.0, 0.0, 0.0, 0.0, 0.0, 0.0]
twist: 
  twist: 
    linear: 
      x: -0.00628319133904
      y: 0.0
      z: 0.0
    angular: 
      x: 0.0
      y: 0.0
      z: 0.197471727799
  covariance: [0.0, 0.0, 0.0, 0.0, 0.0, 0.0, 0.0, 0.0, 0.0, 0.0, 0.0, 0.0, 0.0, 0.0, 0.0, 0.0, 0.0, 0.0, 0.0, 0.0, 0.0, 0.0, 0.0, 0.0, 0.0, 0.0, 0.0, 0.0, 0.0, 0.0, 0.0, 0.0, 0.0, 0.0, 0.0, 0.0]
---
header: 
  seq: 2546
  stamp: 
    secs: 2
    nsecs: 549999952
  frame_id: odom
child_frame_id: base_link
pose: 
  pose: 
    position: 
      x: -0.0600674626649
      y: -0.844906816482
      z: 0.0
    orientation: 
      x: 0.0
      y: 0.0
      z: 0.243687557362
      w: 0.969853790211
  covariance: [0.0, 0.0, 0.0, 0.0, 0.0, 0.0, 0.0, 0.0, 0.0, 0.0, 0.0, 0.0, 0.0, 0.0, 0.0, 0.0, 0.0, 0.0, 0.0, 0.0, 0.0, 0.0, 0.0, 0.0, 0.0, 0.0, 0.0, 0.0, 0.0, 0.0, 0.0, 0.0, 0.0, 0.0, 0.0, 0.0]
twist: 
  twist: 
    linear: 
      x: 0.00628319133904
      y: 0.0
      z: 0.0
    angular: 
      x: 0.0
      y: 0.0
      z: 0.197471727799
  covariance: [0.0, 0.0, 0.0, 0.0, 0.0, 0.0, 0.0, 0.0, 0.0, 0.0, 0.0, 0.0, 0.0, 0.0, 0.0, 0.0, 0.0, 0.0, 0.0, 0.0, 0.0, 0.0, 0.0, 0.0, 0.0, 0.0, 0.0, 0.0, 0.0, 0.0, 0.0, 0.0, 0.0, 0.0, 0.0, 0.0]
---
header: 
  seq: 2547
  stamp: 
    secs: 2
    nsecs: 599999905
  frame_id: odom
child_frame_id: base_link
pose: 
  pose: 
    position: 
      x: -0.0603428304246
      y: -0.845058040293
      z: 0.0
    orientation: 
      x: 0.0
      y: 0.0
      z: 0.248472531352
      w: 0.968638942622
  covariance: [0.0, 0.0, 0.0, 0.0, 0.0, 0.0, 0.0, 0.0, 0.0, 0.0, 0.0, 0.0, 0.0, 0.0, 0.0, 0.0, 0.0, 0.0, 0.0, 0.0, 0.0, 0.0, 0.0, 0.0, 0.0, 0.0, 0.0, 0.0, 0.0, 0.0, 0.0, 0.0, 0.0, 0.0, 0.0, 0.0]
twist: 
  twist: 
    linear: 
      x: -0.00628319121338
      y: 0.0
      z: 0.0
    angular: 
      x: 0.0
      y: 0.0
      z: 0.197471723849
  covariance: [0.0, 0.0, 0.0, 0.0, 0.0, 0.0, 0.0, 0.0, 0.0, 0.0, 0.0, 0.0, 0.0, 0.0, 0.0, 0.0, 0.0, 0.0, 0.0, 0.0, 0.0, 0.0, 0.0, 0.0, 0.0, 0.0, 0.0, 0.0, 0.0, 0.0, 0.0, 0.0, 0.0, 0.0, 0.0, 0.0]
---
header: 
  seq: 2548
  stamp: 
    secs: 2
    nsecs: 650000095
  frame_id: odom
child_frame_id: base_link
pose: 
  pose: 
    position: 
      x: -0.0602829634372
      y: -0.844844115152
      z: 0.0
    orientation: 
      x: 0.0
      y: 0.0
      z: 0.253468527396
      w: 0.967343633679
  covariance: [0.0, 0.0, 0.0, 0.0, 0.0, 0.0, 0.0, 0.0, 0.0, 0.0, 0.0, 0.0, 0.0, 0.0, 0.0, 0.0, 0.0, 0.0, 0.0, 0.0, 0.0, 0.0, 0.0, 0.0, 0.0, 0.0, 0.0, 0.0, 0.0, 0.0, 0.0, 0.0, 0.0, 0.0, 0.0, 0.0]
twist: 
  twist: 
    linear: 
      x: 0.00314158071558
      y: 0.00314158071558
      z: 0.0
    angular: 
      x: 0.0
      y: 0.0
      z: 0.206446732738
  covariance: [0.0, 0.0, 0.0, 0.0, 0.0, 0.0, 0.0, 0.0, 0.0, 0.0, 0.0, 0.0, 0.0, 0.0, 0.0, 0.0, 0.0, 0.0, 0.0, 0.0, 0.0, 0.0, 0.0, 0.0, 0.0, 0.0, 0.0, 0.0, 0.0, 0.0, 0.0, 0.0, 0.0, 0.0, 0.0, 0.0]
---
header: 
  seq: 2549
  stamp: 
    secs: 2
    nsecs: 700000048
  frame_id: odom
child_frame_id: base_link
pose: 
  pose: 
    position: 
      x: -0.0601262095295
      y: -0.845116372854
      z: 0.0
    orientation: 
      x: 0.0
      y: 0.0
      z: 0.258240990135
      w: 0.966080530294
  covariance: [0.0, 0.0, 0.0, 0.0, 0.0, 0.0, 0.0, 0.0, 0.0, 0.0, 0.0, 0.0, 0.0, 0.0, 0.0, 0.0, 0.0, 0.0, 0.0, 0.0, 0.0, 0.0, 0.0, 0.0, 0.0, 0.0, 0.0, 0.0, 0.0, 0.0, 0.0, 0.0, 0.0, 0.0, 0.0, 0.0]
twist: 
  twist: 
    linear: 
      x: 0.0
      y: -0.00628319121338
      z: 0.0
    angular: 
      x: 0.0
      y: 0.0
      z: 0.197471723849
  covariance: [0.0, 0.0, 0.0, 0.0, 0.0, 0.0, 0.0, 0.0, 0.0, 0.0, 0.0, 0.0, 0.0, 0.0, 0.0, 0.0, 0.0, 0.0, 0.0, 0.0, 0.0, 0.0, 0.0, 0.0, 0.0, 0.0, 0.0, 0.0, 0.0, 0.0, 0.0, 0.0, 0.0, 0.0, 0.0, 0.0]
---
header: 
  seq: 2550
  stamp: 
    secs: 2
    nsecs: 750000000
  frame_id: odom
child_frame_id: base_link
pose: 
  pose: 
    position: 
      x: -0.0603413000328
      y: -0.845060838204
      z: 0.0
    orientation: 
      x: 0.0
      y: 0.0
      z: 0.263223651686
      w: 0.964734838799
  covariance: [0.0, 0.0, 0.0, 0.0, 0.0, 0.0, 0.0, 0.0, 0.0, 0.0, 0.0, 0.0, 0.0, 0.0, 0.0, 0.0, 0.0, 0.0, 0.0, 0.0, 0.0, 0.0, 0.0, 0.0, 0.0, 0.0, 0.0, 0.0, 0.0, 0.0, 0.0, 0.0, 0.0, 0.0, 0.0, 0.0]
twist: 
  twist: 
    linear: 
      x: -0.00314159566952
      y: 0.00314159566952
      z: 0.0
    angular: 
      x: 0.0
      y: 0.0
      z: 0.206447715426
  covariance: [0.0, 0.0, 0.0, 0.0, 0.0, 0.0, 0.0, 0.0, 0.0, 0.0, 0.0, 0.0, 0.0, 0.0, 0.0, 0.0, 0.0, 0.0, 0.0, 0.0, 0.0, 0.0, 0.0, 0.0, 0.0, 0.0, 0.0, 0.0, 0.0, 0.0, 0.0, 0.0, 0.0, 0.0, 0.0, 0.0]
---
header: 
  seq: 2551
  stamp: 
    secs: 2
    nsecs: 799999952
  frame_id: odom
child_frame_id: base_link
pose: 
  pose: 
    position: 
      x: -0.0602879885468
      y: -0.84484518592
      z: 0.0
    orientation: 
      x: 0.0
      y: 0.0
      z: 0.268199301537
      w: 0.963363448889
  covariance: [0.0, 0.0, 0.0, 0.0, 0.0, 0.0, 0.0, 0.0, 0.0, 0.0, 0.0, 0.0, 0.0, 0.0, 0.0, 0.0, 0.0, 0.0, 0.0, 0.0, 0.0, 0.0, 0.0, 0.0, 0.0, 0.0, 0.0, 0.0, 0.0, 0.0, 0.0, 0.0, 0.0, 0.0, 0.0, 0.0]
twist: 
  twist: 
    linear: 
      x: 0.00314159566952
      y: 0.00314159566952
      z: 0.0
    angular: 
      x: 0.0
      y: 0.0
      z: 0.206447715426
  covariance: [0.0, 0.0, 0.0, 0.0, 0.0, 0.0, 0.0, 0.0, 0.0, 0.0, 0.0, 0.0, 0.0, 0.0, 0.0, 0.0, 0.0, 0.0, 0.0, 0.0, 0.0, 0.0, 0.0, 0.0, 0.0, 0.0, 0.0, 0.0, 0.0, 0.0, 0.0, 0.0, 0.0, 0.0, 0.0, 0.0]
---
header: 
  seq: 2552
  stamp: 
    secs: 2
    nsecs: 849999905
  frame_id: odom
child_frame_id: base_link
pose: 
  pose: 
    position: 
      x: -0.0603392652203
      y: -0.845061331068
      z: 0.0
    orientation: 
      x: 0.0
      y: 0.0
      z: 0.272736050142
      w: 0.962088897635
  covariance: [0.0, 0.0, 0.0, 0.0, 0.0, 0.0, 0.0, 0.0, 0.0, 0.0, 0.0, 0.0, 0.0, 0.0, 0.0, 0.0, 0.0, 0.0, 0.0, 0.0, 0.0, 0.0, 0.0, 0.0, 0.0, 0.0, 0.0, 0.0, 0.0, 0.0, 0.0, 0.0, 0.0, 0.0, 0.0, 0.0]
twist: 
  twist: 
    linear: 
      x: -0.00314159560669
      y: -0.00314159560669
      z: 0.0
    angular: 
      x: 0.0
      y: 0.0
      z: 0.188495736401
  covariance: [0.0, 0.0, 0.0, 0.0, 0.0, 0.0, 0.0, 0.0, 0.0, 0.0, 0.0, 0.0, 0.0, 0.0, 0.0, 0.0, 0.0, 0.0, 0.0, 0.0, 0.0, 0.0, 0.0, 0.0, 0.0, 0.0, 0.0, 0.0, 0.0, 0.0, 0.0, 0.0, 0.0, 0.0, 0.0, 0.0]
---
header: 
  seq: 2553
  stamp: 
    secs: 2
    nsecs: 900000095
  frame_id: odom
child_frame_id: base_link
pose: 
  pose: 
    position: 
      x: -0.0602902223704
      y: -0.844844668148
      z: 0.0
    orientation: 
      x: 0.0
      y: 0.0
      z: 0.27769791716
      w: 0.960668447908
  covariance: [0.0, 0.0, 0.0, 0.0, 0.0, 0.0, 0.0, 0.0, 0.0, 0.0, 0.0, 0.0, 0.0, 0.0, 0.0, 0.0, 0.0, 0.0, 0.0, 0.0, 0.0, 0.0, 0.0, 0.0, 0.0, 0.0, 0.0, 0.0, 0.0, 0.0, 0.0, 0.0, 0.0, 0.0, 0.0, 0.0]
twist: 
  twist: 
    linear: 
      x: 0.00314158071558
      y: 0.00314158071558
      z: 0.0
    angular: 
      x: 0.0
      y: 0.0
      z: 0.206446732738
  covariance: [0.0, 0.0, 0.0, 0.0, 0.0, 0.0, 0.0, 0.0, 0.0, 0.0, 0.0, 0.0, 0.0, 0.0, 0.0, 0.0, 0.0, 0.0, 0.0, 0.0, 0.0, 0.0, 0.0, 0.0, 0.0, 0.0, 0.0, 0.0, 0.0, 0.0, 0.0, 0.0, 0.0, 0.0, 0.0, 0.0]
---
header: 
  seq: 2554
  stamp: 
    secs: 2
    nsecs: 950000048
  frame_id: odom
child_frame_id: base_link
pose: 
  pose: 
    position: 
      x: -0.0603372210725
      y: -0.845061783656
      z: 0.0
    orientation: 
      x: 0.0
      y: 0.0
      z: 0.282221860453
      w: 0.959349165571
  covariance: [0.0, 0.0, 0.0, 0.0, 0.0, 0.0, 0.0, 0.0, 0.0, 0.0, 0.0, 0.0, 0.0, 0.0, 0.0, 0.0, 0.0, 0.0, 0.0, 0.0, 0.0, 0.0, 0.0, 0.0, 0.0, 0.0, 0.0, 0.0, 0.0, 0.0, 0.0, 0.0, 0.0, 0.0, 0.0, 0.0]
twist: 
  twist: 
    linear: 
      x: -0.00314159560669
      y: -0.00314159560669
      z: 0.0
    angular: 
      x: 0.0
      y: 0.0
      z: 0.188495736401
  covariance: [0.0, 0.0, 0.0, 0.0, 0.0, 0.0, 0.0, 0.0, 0.0, 0.0, 0.0, 0.0, 0.0, 0.0, 0.0, 0.0, 0.0, 0.0, 0.0, 0.0, 0.0, 0.0, 0.0, 0.0, 0.0, 0.0, 0.0, 0.0, 0.0, 0.0, 0.0, 0.0, 0.0, 0.0, 0.0, 0.0]
---
header: 
  seq: 2555
  stamp: 
    secs: 3
    nsecs:         0
  frame_id: odom
child_frame_id: base_link
pose: 
  pose: 
    position: 
      x: -0.0602924659823
      y: -0.844844194585
      z: 0.0
    orientation: 
      x: 0.0
      y: 0.0
      z: 0.287169460921
      w: 0.957879794502
  covariance: [0.0, 0.0, 0.0, 0.0, 0.0, 0.0, 0.0, 0.0, 0.0, 0.0, 0.0, 0.0, 0.0, 0.0, 0.0, 0.0, 0.0, 0.0, 0.0, 0.0, 0.0, 0.0, 0.0, 0.0, 0.0, 0.0, 0.0, 0.0, 0.0, 0.0, 0.0, 0.0, 0.0, 0.0, 0.0, 0.0]
twist: 
  twist: 
    linear: 
      x: 0.00314159566952
      y: 0.00314159566952
      z: 0.0
    angular: 
      x: 0.0
      y: 0.0
      z: 0.206447715426
  covariance: [0.0, 0.0, 0.0, 0.0, 0.0, 0.0, 0.0, 0.0, 0.0, 0.0, 0.0, 0.0, 0.0, 0.0, 0.0, 0.0, 0.0, 0.0, 0.0, 0.0, 0.0, 0.0, 0.0, 0.0, 0.0, 0.0, 0.0, 0.0, 0.0, 0.0, 0.0, 0.0, 0.0, 0.0, 0.0, 0.0]
---
header: 
  seq: 2556
  stamp: 
    secs: 3
    nsecs:  49999952
  frame_id: odom
child_frame_id: base_link
pose: 
  pose: 
    position: 
      x: -0.0603349726918
      y: -0.845062234035
      z: 0.0
    orientation: 
      x: 0.0
      y: 0.0
      z: 0.292109411825
      w: 0.95638490762
  covariance: [0.0, 0.0, 0.0, 0.0, 0.0, 0.0, 0.0, 0.0, 0.0, 0.0, 0.0, 0.0, 0.0, 0.0, 0.0, 0.0, 0.0, 0.0, 0.0, 0.0, 0.0, 0.0, 0.0, 0.0, 0.0, 0.0, 0.0, 0.0, 0.0, 0.0, 0.0, 0.0, 0.0, 0.0, 0.0, 0.0]
twist: 
  twist: 
    linear: 
      x: -0.00314159566952
      y: -0.00314159566952
      z: 0.0
    angular: 
      x: 0.0
      y: 0.0
      z: 0.206447715426
  covariance: [0.0, 0.0, 0.0, 0.0, 0.0, 0.0, 0.0, 0.0, 0.0, 0.0, 0.0, 0.0, 0.0, 0.0, 0.0, 0.0, 0.0, 0.0, 0.0, 0.0, 0.0, 0.0, 0.0, 0.0, 0.0, 0.0, 0.0, 0.0, 0.0, 0.0, 0.0, 0.0, 0.0, 0.0, 0.0, 0.0]
---
header: 
  seq: 2557
  stamp: 
    secs: 3
    nsecs:  99999905
  frame_id: odom
child_frame_id: base_link
pose: 
  pose: 
    position: 
      x: -0.0603349726918
      y: -0.845062234035
      z: 0.0
    orientation: 
      x: 0.0
      y: 0.0
      z: 0.296827302997
      w: 0.95493117668
  covariance: [0.0, 0.0, 0.0, 0.0, 0.0, 0.0, 0.0, 0.0, 0.0, 0.0, 0.0, 0.0, 0.0, 0.0, 0.0, 0.0, 0.0, 0.0, 0.0, 0.0, 0.0, 0.0, 0.0, 0.0, 0.0, 0.0, 0.0, 0.0, 0.0, 0.0, 0.0, 0.0, 0.0, 0.0, 0.0, 0.0]
twist: 
  twist: 
    linear: 
      x: 0.0
      y: 0.0
      z: 0.0
    angular: 
      x: 0.0
      y: 0.0
      z: 0.197471723849
  covariance: [0.0, 0.0, 0.0, 0.0, 0.0, 0.0, 0.0, 0.0, 0.0, 0.0, 0.0, 0.0, 0.0, 0.0, 0.0, 0.0, 0.0, 0.0, 0.0, 0.0, 0.0, 0.0, 0.0, 0.0, 0.0, 0.0, 0.0, 0.0, 0.0, 0.0, 0.0, 0.0, 0.0, 0.0, 0.0, 0.0]
---
header: 
  seq: 2558
  stamp: 
    secs: 3
    nsecs: 150000095
  frame_id: odom
child_frame_id: base_link
pose: 
  pose: 
    position: 
      x: -0.0602968778659
      y: -0.844843380645
      z: 0.0
    orientation: 
      x: 0.0
      y: 0.0
      z: 0.301751906967
      w: 0.953386483354
  covariance: [0.0, 0.0, 0.0, 0.0, 0.0, 0.0, 0.0, 0.0, 0.0, 0.0, 0.0, 0.0, 0.0, 0.0, 0.0, 0.0, 0.0, 0.0, 0.0, 0.0, 0.0, 0.0, 0.0, 0.0, 0.0, 0.0, 0.0, 0.0, 0.0, 0.0, 0.0, 0.0, 0.0, 0.0, 0.0, 0.0]
twist: 
  twist: 
    linear: 
      x: 0.00314158071558
      y: 0.00314158071558
      z: 0.0
    angular: 
      x: 0.0
      y: 0.0
      z: 0.206446732738
  covariance: [0.0, 0.0, 0.0, 0.0, 0.0, 0.0, 0.0, 0.0, 0.0, 0.0, 0.0, 0.0, 0.0, 0.0, 0.0, 0.0, 0.0, 0.0, 0.0, 0.0, 0.0, 0.0, 0.0, 0.0, 0.0, 0.0, 0.0, 0.0, 0.0, 0.0, 0.0, 0.0, 0.0, 0.0, 0.0, 0.0]
---
header: 
  seq: 2559
  stamp: 
    secs: 3
    nsecs: 200000048
  frame_id: odom
child_frame_id: base_link
pose: 
  pose: 
    position: 
      x: -0.0605520288526
      y: -0.845026667355
      z: 0.0
    orientation: 
      x: 0.0
      y: 0.0
      z: 0.30645487811
      w: 0.951885186187
  covariance: [0.0, 0.0, 0.0, 0.0, 0.0, 0.0, 0.0, 0.0, 0.0, 0.0, 0.0, 0.0, 0.0, 0.0, 0.0, 0.0, 0.0, 0.0, 0.0, 0.0, 0.0, 0.0, 0.0, 0.0, 0.0, 0.0, 0.0, 0.0, 0.0, 0.0, 0.0, 0.0, 0.0, 0.0, 0.0, 0.0]
twist: 
  twist: 
    linear: 
      x: -0.00628319121338
      y: 0.0
      z: 0.0
    angular: 
      x: 0.0
      y: 0.0
      z: 0.197471723849
  covariance: [0.0, 0.0, 0.0, 0.0, 0.0, 0.0, 0.0, 0.0, 0.0, 0.0, 0.0, 0.0, 0.0, 0.0, 0.0, 0.0, 0.0, 0.0, 0.0, 0.0, 0.0, 0.0, 0.0, 0.0, 0.0, 0.0, 0.0, 0.0, 0.0, 0.0, 0.0, 0.0, 0.0, 0.0, 0.0, 0.0]
---
header: 
  seq: 2560
  stamp: 
    secs: 3
    nsecs: 250000000
  frame_id: odom
child_frame_id: base_link
pose: 
  pose: 
    position: 
      x: -0.0602986999688
      y: -0.844840870367
      z: 0.0
    orientation: 
      x: 0.0
      y: 0.0
      z: 0.311150380387
      w: 0.950360689836
  covariance: [0.0, 0.0, 0.0, 0.0, 0.0, 0.0, 0.0, 0.0, 0.0, 0.0, 0.0, 0.0, 0.0, 0.0, 0.0, 0.0, 0.0, 0.0, 0.0, 0.0, 0.0, 0.0, 0.0, 0.0, 0.0, 0.0, 0.0, 0.0, 0.0, 0.0, 0.0, 0.0, 0.0, 0.0, 0.0, 0.0]
twist: 
  twist: 
    linear: 
      x: 0.00628319133904
      y: 0.0
      z: 0.0
    angular: 
      x: 0.0
      y: 0.0
      z: 0.197471727799
  covariance: [0.0, 0.0, 0.0, 0.0, 0.0, 0.0, 0.0, 0.0, 0.0, 0.0, 0.0, 0.0, 0.0, 0.0, 0.0, 0.0, 0.0, 0.0, 0.0, 0.0, 0.0, 0.0, 0.0, 0.0, 0.0, 0.0, 0.0, 0.0, 0.0, 0.0, 0.0, 0.0, 0.0, 0.0, 0.0, 0.0]
---
header: 
  seq: 2561
  stamp: 
    secs: 3
    nsecs: 299999952
  frame_id: odom
child_frame_id: base_link
pose: 
  pose: 
    position: 
      x: -0.0605501820534
      y: -0.84502915952
      z: 0.0
    orientation: 
      x: 0.0
      y: 0.0
      z: 0.315838299359
      w: 0.948813031455
  covariance: [0.0, 0.0, 0.0, 0.0, 0.0, 0.0, 0.0, 0.0, 0.0, 0.0, 0.0, 0.0, 0.0, 0.0, 0.0, 0.0, 0.0, 0.0, 0.0, 0.0, 0.0, 0.0, 0.0, 0.0, 0.0, 0.0, 0.0, 0.0, 0.0, 0.0, 0.0, 0.0, 0.0, 0.0, 0.0, 0.0]
twist: 
  twist: 
    linear: 
      x: -0.00628319133904
      y: 0.0
      z: 0.0
    angular: 
      x: 0.0
      y: 0.0
      z: 0.197471727799
  covariance: [0.0, 0.0, 0.0, 0.0, 0.0, 0.0, 0.0, 0.0, 0.0, 0.0, 0.0, 0.0, 0.0, 0.0, 0.0, 0.0, 0.0, 0.0, 0.0, 0.0, 0.0, 0.0, 0.0, 0.0, 0.0, 0.0, 0.0, 0.0, 0.0, 0.0, 0.0, 0.0, 0.0, 0.0, 0.0, 0.0]
---
header: 
  seq: 2562
  stamp: 
    secs: 3
    nsecs: 349999905
  frame_id: odom
child_frame_id: base_link
pose: 
  pose: 
    position: 
      x: -0.0603005712841
      y: -0.844838396558
      z: 0.0
    orientation: 
      x: 0.0
      y: 0.0
      z: 0.320518520774
      w: 0.947242248763
  covariance: [0.0, 0.0, 0.0, 0.0, 0.0, 0.0, 0.0, 0.0, 0.0, 0.0, 0.0, 0.0, 0.0, 0.0, 0.0, 0.0, 0.0, 0.0, 0.0, 0.0, 0.0, 0.0, 0.0, 0.0, 0.0, 0.0, 0.0, 0.0, 0.0, 0.0, 0.0, 0.0, 0.0, 0.0, 0.0, 0.0]
twist: 
  twist: 
    linear: 
      x: 0.00628319121338
      y: 0.0
      z: 0.0
    angular: 
      x: 0.0
      y: 0.0
      z: 0.197471723849
  covariance: [0.0, 0.0, 0.0, 0.0, 0.0, 0.0, 0.0, 0.0, 0.0, 0.0, 0.0, 0.0, 0.0, 0.0, 0.0, 0.0, 0.0, 0.0, 0.0, 0.0, 0.0, 0.0, 0.0, 0.0, 0.0, 0.0, 0.0, 0.0, 0.0, 0.0, 0.0, 0.0, 0.0, 0.0, 0.0, 0.0]
---
header: 
  seq: 2563
  stamp: 
    secs: 3
    nsecs: 400000095
  frame_id: odom
child_frame_id: base_link
pose: 
  pose: 
    position: 
      x: -0.0603277208087
      y: -0.845058875412
      z: 0.0
    orientation: 
      x: 0.0
      y: 0.0
      z: 0.325403125376
      w: 0.94557538356
  covariance: [0.0, 0.0, 0.0, 0.0, 0.0, 0.0, 0.0, 0.0, 0.0, 0.0, 0.0, 0.0, 0.0, 0.0, 0.0, 0.0, 0.0, 0.0, 0.0, 0.0, 0.0, 0.0, 0.0, 0.0, 0.0, 0.0, 0.0, 0.0, 0.0, 0.0, 0.0, 0.0, 0.0, 0.0, 0.0, 0.0]
twist: 
  twist: 
    linear: 
      x: -0.00314158071558
      y: -0.00314158071558
      z: 0.0
    angular: 
      x: 0.0
      y: 0.0
      z: 0.206446732738
  covariance: [0.0, 0.0, 0.0, 0.0, 0.0, 0.0, 0.0, 0.0, 0.0, 0.0, 0.0, 0.0, 0.0, 0.0, 0.0, 0.0, 0.0, 0.0, 0.0, 0.0, 0.0, 0.0, 0.0, 0.0, 0.0, 0.0, 0.0, 0.0, 0.0, 0.0, 0.0, 0.0, 0.0, 0.0, 0.0, 0.0]
---
header: 
  seq: 2564
  stamp: 
    secs: 3
    nsecs: 450000048
  frame_id: odom
child_frame_id: base_link
pose: 
  pose: 
    position: 
      x: -0.0605484681599
      y: -0.845034003159
      z: 0.0
    orientation: 
      x: 0.0
      y: 0.0
      z: 0.330279061955
      w: 0.943883330308
  covariance: [0.0, 0.0, 0.0, 0.0, 0.0, 0.0, 0.0, 0.0, 0.0, 0.0, 0.0, 0.0, 0.0, 0.0, 0.0, 0.0, 0.0, 0.0, 0.0, 0.0, 0.0, 0.0, 0.0, 0.0, 0.0, 0.0, 0.0, 0.0, 0.0, 0.0, 0.0, 0.0, 0.0, 0.0, 0.0, 0.0]
twist: 
  twist: 
    linear: 
      x: -0.00314159560669
      y: 0.00314159560669
      z: 0.0
    angular: 
      x: 0.0
      y: 0.0
      z: 0.206447711297
  covariance: [0.0, 0.0, 0.0, 0.0, 0.0, 0.0, 0.0, 0.0, 0.0, 0.0, 0.0, 0.0, 0.0, 0.0, 0.0, 0.0, 0.0, 0.0, 0.0, 0.0, 0.0, 0.0, 0.0, 0.0, 0.0, 0.0, 0.0, 0.0, 0.0, 0.0, 0.0, 0.0, 0.0, 0.0, 0.0, 0.0]
---
header: 
  seq: 2565
  stamp: 
    secs: 3
    nsecs: 500000000
  frame_id: odom
child_frame_id: base_link
pose: 
  pose: 
    position: 
      x: -0.0603047944845
      y: -0.844835712504
      z: 0.0
    orientation: 
      x: 0.0
      y: 0.0
      z: 0.334934770603
      w: 0.942241316989
  covariance: [0.0, 0.0, 0.0, 0.0, 0.0, 0.0, 0.0, 0.0, 0.0, 0.0, 0.0, 0.0, 0.0, 0.0, 0.0, 0.0, 0.0, 0.0, 0.0, 0.0, 0.0, 0.0, 0.0, 0.0, 0.0, 0.0, 0.0, 0.0, 0.0, 0.0, 0.0, 0.0, 0.0, 0.0, 0.0, 0.0]
twist: 
  twist: 
    linear: 
      x: 0.00628319133904
      y: 0.0
      z: 0.0
    angular: 
      x: 0.0
      y: 0.0
      z: 0.197471727799
  covariance: [0.0, 0.0, 0.0, 0.0, 0.0, 0.0, 0.0, 0.0, 0.0, 0.0, 0.0, 0.0, 0.0, 0.0, 0.0, 0.0, 0.0, 0.0, 0.0, 0.0, 0.0, 0.0, 0.0, 0.0, 0.0, 0.0, 0.0, 0.0, 0.0, 0.0, 0.0, 0.0, 0.0, 0.0, 0.0, 0.0]
---
header: 
  seq: 2566
  stamp: 
    secs: 3
    nsecs: 549999952
  frame_id: odom
child_frame_id: base_link
pose: 
  pose: 
    position: 
      x: -0.0605464984762
      y: -0.845036399385
      z: 0.0
    orientation: 
      x: 0.0
      y: 0.0
      z: 0.339582316278
      w: 0.940576339524
  covariance: [0.0, 0.0, 0.0, 0.0, 0.0, 0.0, 0.0, 0.0, 0.0, 0.0, 0.0, 0.0, 0.0, 0.0, 0.0, 0.0, 0.0, 0.0, 0.0, 0.0, 0.0, 0.0, 0.0, 0.0, 0.0, 0.0, 0.0, 0.0, 0.0, 0.0, 0.0, 0.0, 0.0, 0.0, 0.0, 0.0]
twist: 
  twist: 
    linear: 
      x: -0.00628319133904
      y: 0.0
      z: 0.0
    angular: 
      x: 0.0
      y: 0.0
      z: 0.197471727799
  covariance: [0.0, 0.0, 0.0, 0.0, 0.0, 0.0, 0.0, 0.0, 0.0, 0.0, 0.0, 0.0, 0.0, 0.0, 0.0, 0.0, 0.0, 0.0, 0.0, 0.0, 0.0, 0.0, 0.0, 0.0, 0.0, 0.0, 0.0, 0.0, 0.0, 0.0, 0.0, 0.0, 0.0, 0.0, 0.0, 0.0]
---
header: 
  seq: 2567
  stamp: 
    secs: 3
    nsecs: 599999905
  frame_id: odom
child_frame_id: base_link
pose: 
  pose: 
    position: 
      x: -0.0605282742355
      y: -0.84481500404
      z: 0.0
    orientation: 
      x: 0.0
      y: 0.0
      z: 0.344432263114
      w: 0.938811171709
  covariance: [0.0, 0.0, 0.0, 0.0, 0.0, 0.0, 0.0, 0.0, 0.0, 0.0, 0.0, 0.0, 0.0, 0.0, 0.0, 0.0, 0.0, 0.0, 0.0, 0.0, 0.0, 0.0, 0.0, 0.0, 0.0, 0.0, 0.0, 0.0, 0.0, 0.0, 0.0, 0.0, 0.0, 0.0, 0.0, 0.0]
twist: 
  twist: 
    linear: 
      x: 0.00314159560669
      y: 0.00314159560669
      z: 0.0
    angular: 
      x: 0.0
      y: 0.0
      z: 0.206447711297
  covariance: [0.0, 0.0, 0.0, 0.0, 0.0, 0.0, 0.0, 0.0, 0.0, 0.0, 0.0, 0.0, 0.0, 0.0, 0.0, 0.0, 0.0, 0.0, 0.0, 0.0, 0.0, 0.0, 0.0, 0.0, 0.0, 0.0, 0.0, 0.0, 0.0, 0.0, 0.0, 0.0, 0.0, 0.0, 0.0, 0.0]
---
header: 
  seq: 2568
